time,latitude,longitude,pitch,yaw,roll,altitude,heading,gvelocity,vvelocity,fvelocity,xaccel,yaccel,zaccel,aoa,gratio,temperature,distance
(yyyy-MM-ddTHH:mm:ssZ),(deg),(deg),(deg),(deg),(deg),(m),(deg),(km/hr),(km/hr),(km/hr),(m/s2),(m/s2),(m/s2),(deg),(ratio),(celsius),(km)
2017-04-13T15:07:12Z,51.057765,-114.127352,177,13.25,71.69,1100.94,-89.49,0.34,0,0.34,1.23,0,1.23,0,0,16.62,0
2017-04-13T15:07:13Z,51.057765,-114.127352,177,13.25,71.69,1100.69,-91.8,0,900,900,-1.23,3240,3238.77,0,0,16.62,0
2017-04-13T15:07:14Z,51.057767,-114.127355,177,13.25,71.69,1100.38,-91.46,1.03,1125,1125,3.69,810,810,0,0,16.56,0.000286111
2017-04-13T15:07:15Z,51.057767,-114.127353,177,13.25,71.69,1100.69,-91.63,0.34,-1125,1125,-2.46,-8100,0,0,0,16.56,0.000380556
2017-04-13T15:07:16Z,51.057767,-114.127355,177,13.25,71.69,1100.5,-91.11,0.34,675,675,0,6480,-1620,0,0,16.5,0.000475
2017-04-13T15:07:17Z,51.057767,-114.127355,177,13.25,71.69,1099.94,-91.31,0,2025,2025,-1.23,4860,4860,0,0,16.5,0.000475
2017-04-13T15:07:19Z,51.057768,-114.127358,177,13.25,71.69,1099.88,-91.11,1.03,225,225,3.69,-6480,-6479.99,0,0,16.44,0.000761111
2017-04-13T15:07:20Z,51.05777,-114.127358,177,13.25,71.69,1099.88,-91.11,0.68,0,0.68,-1.23,-810,-807.55,0,0,16.44,0.00095
2017-04-13T15:07:21Z,51.05777,-114.12736,177,13.25,71.69,1100.06,-91.3,0.48,-675,675,-0.72,-2430,2427.54,0,0,16.38,0.001083333
2017-04-13T15:07:22Z,51.05777,-114.12736,177,13.25,71.69,1099.56,-90.89,0,1800,1800,-1.74,8910,4050,0,0,16.38,0.001083333
2017-04-13T15:07:23Z,51.057772,-114.127362,177,13.25,71.69,1099.5,-91.66,0.84,225,225,3.01,-5670,-5669.99,0,0,16.31,0.001316667
2017-04-13T15:07:24Z,51.057772,-114.127365,177,13.25,71.69,1099.56,-90.89,0.84,-225,225,0,-1620,0,0,0,16.31,0.00155
2017-04-13T15:07:25Z,51.057772,-114.127365,177,13.25,71.69,1099.31,-90.89,0,900,900,-3.01,4050,2429.99,0,0,16.25,0.00155
2017-04-13T15:07:27Z,51.05777,-114.12737,177,13.25,71.69,1099.5,-91.31,1.45,-675,675,5.22,-5670,-809.99,0,0,16.25,0.001952778
2017-04-13T15:07:28Z,51.057768,-114.12737,177,13.25,71.69,1099.56,-91.31,0.68,-225,225,-2.76,1620,-1620,0,0,16.19,0.002141667
2017-04-13T15:07:29Z,51.057767,-114.127372,177,13.25,71.69,1099.44,-91.11,0.68,450,450,0,2430,810,0,0,16.19,0.002330556
2017-04-13T15:07:30Z,51.057767,-114.127372,177,13.25,71.69,1099.38,-91.8,0,225,225,-2.46,-810,-810,0,0,16.19,0.002330556
2017-04-13T15:07:31Z,51.057765,-114.127372,177,13.25,71.69,1099.88,-91.8,0.59,-1800,1800,2.13,-7290,5670,0,0,16.12,0.002494444
2017-04-13T15:07:32Z,51.057763,-114.12737,177,13.25,71.69,1099.5,-90.76,0.76,1350,1350,0.62,11340,-1620,0,0,16.06,0.002705556
2017-04-13T15:07:33Z,51.057762,-114.12737,177,13.25,71.69,1099.5,-91.29,0.68,0,0.68,-0.29,-4860,-4857.54,0,0,16.06,0.002894444
2017-04-13T15:07:35Z,51.057762,-114.12737,177,13.25,71.69,1099.69,-91.47,0,-675,675,-2.46,-2430,2427.54,0,0,16,0.002894444
2017-04-13T15:07:36Z,51.057762,-114.12737,177,13.25,71.69,1099.94,-90.89,0,-900,900,0,-810,810,0,0,16,0.002894444
2017-04-13T15:07:37Z,51.05776,-114.12737,177,13.25,71.69,1099.56,-91.3,0.59,1350,1350,2.13,8100,1620,0,0,15.94,0.003058333
2017-04-13T15:07:38Z,51.05776,-114.127372,177,13.25,71.69,1099.88,-91.3,0,-1125,1125,-2.13,-8910,-810,0,0,15.94,0.003058333
2017-04-13T15:07:39Z,51.057758,-114.127372,177,13.25,71.69,1100.06,-91.3,0.68,-675,675,2.46,1620,-1620,0,0,15.88,0.003247222
2017-04-13T15:07:40Z,51.057758,-114.127372,177,13.25,71.69,1100.12,-90.89,0,-225,225,-2.46,1620,-1620,0,0,15.88,0.003247222
2017-04-13T15:07:41Z,51.057757,-114.12737,177,13.25,71.69,1099.94,-91.31,0.84,675,675,3.01,3240,1620,0,0,15.88,0.003480556
2017-04-13T15:07:43Z,51.057757,-114.127368,177,13.25,71.69,1099.94,-92.05,0.48,0,0.48,-1.27,-2430,-2428.26,0,0,15.88,0.003613889
2017-04-13T15:07:44Z,51.057757,-114.12737,177,13.25,71.69,1100.25,-91.3,0.48,-1125,1125,0,-4050,4048.26,0,0,15.81,0.003747222
2017-04-13T15:07:45Z,51.057757,-114.127372,177,13.25,71.69,1099.88,-91.46,0.48,1350,1350,0,8910,810,0,0,15.81,0.003880556
2017-04-13T15:07:46Z,51.057757,-114.127372,177,13.25,71.69,1100.19,-91.11,0,-1125,1125,-1.74,-8910,-810,0,0,15.75,0.003880556
2017-04-13T15:07:47Z,51.057757,-114.127368,177,13.25,71.69,1100.31,-91.3,0.84,-450,450,3.01,2430,-2430,0,0,15.75,0.004113889
2017-04-13T15:07:48Z,51.057757,-114.127368,177,13.25,71.69,1100.25,-90.89,0,225,225,-3.01,2430,-810,0,0,15.69,0.004113889
2017-04-13T15:07:49Z,51.057757,-114.127368,177,13.25,71.69,1100.5,-91.11,0,-900,900,0,-4050,2430,0,0,15.69,0.004113889
2017-04-13T15:07:51Z,51.057758,-114.127372,177,13.25,71.69,1100.5,-91.11,1.08,0,1.08,3.89,3240,-3236.11,0,0,15.62,0.004413889
2017-04-13T15:07:52Z,51.057758,-114.127372,177,13.25,71.69,1100.44,-91.11,0,225,225,-3.89,810,806.11,0,0,15.62,0.004413889
2017-04-13T15:07:53Z,51.057758,-114.12737,177,13.25,71.69,1100.75,-90.54,0.48,-1125,1125,1.74,-4860,3240,0,0,15.56,0.004547222
2017-04-13T15:07:54Z,51.05776,-114.12737,177,13.25,71.69,1100.5,-92.03,0.68,900,900,0.72,7290,-810,0,0,15.56,0.004736111
2017-04-13T15:07:55Z,51.05776,-114.12737,177,13.25,71.69,1100.19,-90.88,0.53,1125,930,0.32,810,567,0,0,15.56,0.004883333
2017-04-13T15:07:56Z,51.05776,-114.12737,177,13.25,71.69,1100.31,-90.89,0.67,-450,925,2.4,-5670,3456,0,0,15.5,0.005069444
2017-04-13T15:07:57Z,51.057762,-114.127368,177,13.25,71.69,1099.88,-90.89,0.68,1575,1575,1.2,7290,511,0,0,15.5,0.005258333
2017-04-13T15:07:59Z,51.057762,-114.127368,177,13.25,71.69,1100.5,-91.47,0,-2250,2250,-2.46,-13770,2430,0,0,15.44,0.005258333
2017-04-13T15:08:00Z,51.057762,-114.127367,177,13.25,71.69,1100.06,-90.88,0.34,1575,1575,1.23,13770,-2430,0,0,15.44,0.005352778
2017-04-13T15:08:01Z,51.057763,-114.127367,177,13.25,71.69,1099.88,-91.64,0.68,675,675,1.23,-3240,-3240,0,0,15.38,0.005541667
2017-04-13T15:08:02Z,51.057763,-114.127365,177,13.25,71.69,1100.25,-90.76,0.48,-1350,1350,-0.72,-7290,2430,0,0,15.38,0.005675
2017-04-13T15:08:03Z,51.057765,-114.127365,177,13.25,71.69,1100.06,-91.12,0.68,675,675,0.72,7290,-2430,0,0,15.31,0.005863889
2017-04-13T15:08:04Z,51.057767,-114.127363,177,13.25,71.69,1099.75,-90.88,0.68,1125,1125,0,1620,1620,0,0,15.31,0.006052778
2017-04-13T15:08:05Z,51.057767,-114.127362,177,13.25,71.69,1100.12,-90.89,0.34,-1350,1350,-1.23,-8910,810,0,0,15.25,0.006147222
2017-04-13T15:08:06Z,51.057768,-114.12736,177,13.25,71.69,1100.12,-91.3,0.68,0,0.68,1.23,4860,-4857.54,0,0,15.25,0.006336111
2017-04-13T15:08:08Z,51.057768,-114.127362,177,13.25,71.69,1100.12,-91.32,0.48,0,0.48,-0.72,0,-0.72,0,0,15.25,0.006469444
2017-04-13T15:08:09Z,51.05777,-114.127362,177,13.25,71.69,1100.06,-90.54,0.68,225,225,0.72,810,808.26,0,0,15.19,0.006658333
2017-04-13T15:08:10Z,51.05777,-114.127362,177,13.25,71.69,1100.25,-86.15,0,-675,675,-2.46,-3240,1620,0,0,15.19,0.006658333
2017-04-13T15:08:11Z,51.05777,-114.127362,177,13.25,71.69,1100.19,-86.15,0,225,225,0,3240,-1620,0,0,15.12,0.006658333
2017-04-13T15:08:12Z,51.05777,-114.127362,177,13.25,71.69,1100.38,-85.74,0,-675,675,0,-3240,1620,0,0,15.12,0.006658333
2017-04-13T15:08:13Z,51.057772,-114.127362,177,13.25,71.69,1100.25,-85.83,0.68,450,450,2.46,4050,-810,0,0,15.12,0.006847222
2017-04-13T15:08:14Z,51.05777,-114.127362,177,13.25,71.69,1100.31,-86.15,0.68,-225,225,0,-2430,-810,0,0,15.06,0.007036111
2017-04-13T15:08:16Z,51.05777,-114.12736,177,13.25,71.69,1100.5,-85.97,0.48,-675,675,-0.72,-1620,1620,0,0,15.06,0.007169444
2017-04-13T15:08:17Z,51.057768,-114.12736,177,13.25,71.69,1100.69,-85.86,0.68,-675,675,0.72,0,0,0,0,15,0.007358333
2017-04-13T15:08:18Z,51.057772,-114.12736,177,13.25,71.69,1100.38,-86.23,1.32,1125,1125,2.3,6480,1620,0,0,15,0.007725
2017-04-13T15:08:19Z,51.057773,-114.12736,177,13.25,71.69,1100.5,-86.51,0.59,-450,450,-2.63,-5670,-2430,0,0,14.94,0.007888889
2017-04-13T15:08:20Z,51.057773,-114.127358,177,13.25,71.69,1100.12,-86.22,0.34,1350,1350,-0.9,6480,3240,0,0,14.94,0.007983333
2017-04-13T15:08:21Z,51.057772,-114.127358,177,13.25,71.69,1100.31,-85.97,0.59,-675,675,0.9,-7290,-2430,0,0,14.94,0.008147222
2017-04-13T15:08:22Z,51.05777,-114.127358,177,13.25,71.69,1099.56,-86.24,0.68,2700,2700,0.33,12150,7290,0,0,14.88,0.008336111
2017-04-13T15:08:24Z,51.057768,-114.127358,177,13.25,71.69,1099.38,-85.85,0.68,675,675,0,-7290,-7290,0,0,14.88,0.008525
2017-04-13T15:08:25Z,51.057768,-114.127357,177,13.25,71.69,1099.94,-86.49,0.48,-2025,2025,-0.72,-9720,4860,0,0,14.81,0.008658333
2017-04-13T15:08:26Z,51.057767,-114.127357,177,13.25,71.69,1099.56,-86.78,0.59,1350,1350,0.39,12150,-2430,0,0,14.81,0.008822222
2017-04-13T15:08:27Z,51.057767,-114.127355,177,13.25,71.69,1099.31,-86.14,0.34,900,900,-0.9,-1620,-1620,0,0,14.81,0.008916667
2017-04-13T15:08:28Z,51.057767,-114.127353,177,13.25,71.69,1099.56,-86.37,0.34,-900,900,0,-6480,0,0,0,14.75,0.009011111
2017-04-13T15:08:29Z,51.057765,-114.127352,177.31,13.31,71.62,1099.5,-83.55,0.68,225,225,1.23,4050,-2430,0,0,14.75,0.0092
2017-04-13T15:08:30Z,51.057763,-114.12735,175,11.56,66.5,1099.44,-84.41,0.76,225,225,0.29,0,0,0,0,14.75,0.009411111
2017-04-13T15:08:32Z,51.057762,-114.127325,173.62,8.69,62.12,1099.75,-84.69,6.32,-1125,1125.02,20,-4860,3240.06,0,-0.01,14.69,0.011166667
2017-04-13T15:08:33Z,51.057763,-114.127278,173.44,7.5,62.62,1100.38,-84.86,11.76,-2250,2250.03,19.58,-4050,4050.05,0,-0.01,14.69,0.014433333
2017-04-13T15:08:34Z,51.057763,-114.12721,173.25,7.12,63.19,1100.31,-84.9,17.19,225,225.66,19.56,8910,-7287.75,0,0.08,14.62,0.019208333
2017-04-13T15:08:35Z,51.057767,-114.127122,172.81,7.19,63.5,1100.06,-84.8,22.26,900,900.28,18.24,2430,2428.63,0,0.02,14.62,0.025391667
2017-04-13T15:08:36Z,51.05777,-114.127015,173.5,7.94,64.56,1100.5,-84.61,26.87,-1575,1575.23,16.59,-8910,2429.83,0,-0.02,14.62,0.032855556
2017-04-13T15:08:37Z,51.057772,-114.126892,171.69,7.25,65.62,1100.75,-85.49,31.04,-900,900.54,15.01,2430,-2428.9,0,-0.03,14.56,0.041477778
2017-04-13T15:08:38Z,51.057775,-114.126758,171,7.06,66.31,1100.69,-84.5,33.57,225,227.49,9.12,4050,-2422.96,0,0.15,14.56,0.050802778
2017-04-13T15:08:40Z,51.057783,-114.126473,169.12,7.44,70,1101.12,-85.45,71.78,-1575,1576.63,137.55,-6480,4856.92,0,-0.05,14.5,0.070741667
2017-04-13T15:08:41Z,51.057787,-114.126328,169.62,7.81,70.81,1100.69,-84.32,36.5,1575,1575.42,-126.99,11340,-4.36,0,0.02,14.5,0.080880556
2017-04-13T15:08:42Z,51.057788,-114.126183,170.75,8.31,71.38,1101.12,-85.63,36.49,-1575,1575.42,-0.07,-11340,0,0,-0.02,14.44,0.091016667
2017-04-13T15:08:43Z,51.05779,-114.126042,169.69,8.69,72.94,1100.62,-85.03,35.65,1800,1800.35,-3.02,12150,809.75,0,0.02,14.44,0.100919444
2017-04-13T15:08:44Z,51.057792,-114.125905,165.38,8.75,75.12,1100.5,-88.58,34.39,450,451.31,-4.52,-4860,-4856.55,0,0.08,14.44,0.110472222
2017-04-13T15:08:45Z,51.05779,-114.125778,165.69,11.19,78.31,1100.56,-90,31.88,-225,227.25,-9.05,-2430,-806.64,0,-0.14,14.44,0.119327778
2017-04-13T15:08:46Z,51.057787,-114.12567,151.75,12.56,77.25,1099.88,-86.63,27.29,2475,2475.15,-16.52,9720,8092.45,0,0.01,14.38,0.126908333
2017-04-13T15:08:48Z,51.057767,-114.125522,137.44,27.5,70,1100.31,-68.75,38.17,-1575,1575.46,39.17,-14580,-3238.88,0,-0.02,14.38,0.137511111
2017-04-13T15:08:49Z,51.057728,-114.125462,144.88,55.31,63.81,1100.44,-31.35,21.52,-450,450.51,-59.92,4050,-4049.81,0,-0.05,14.38,0.143488889
2017-04-13T15:08:50Z,51.057668,-114.125427,154.81,80.06,62.31,1100.94,-21.73,25.58,-1800,1800.18,14.6,-4860,4858.8,0,-0.01,14.31,0.150594444
2017-04-13T15:08:51Z,51.057592,-114.125407,158.56,86.44,63.5,1100.69,-23.54,31.1,900,900.54,19.86,9720,-3238.72,0,0.03,14.31,0.159233333
2017-04-13T15:08:52Z,51.057505,-114.125392,158.88,89.94,65.44,1100.94,-19.63,34.9,-900,900.68,13.67,-6480,0.5,0,-0.04,14.31,0.168927778
2017-04-13T15:08:53Z,51.057408,-114.125388,159.88,93.75,67.12,1100.94,-22.6,38.7,0,38.7,13.71,3240,-3103.1,0,0,14.31,0.179677778
2017-04-13T15:08:54Z,51.057298,-114.125382,163.25,96.56,68.81,1102,-22.6,44.06,-3825,3825.25,19.29,-13770,13631.58,0,-0.01,14.25,0.191916667
2017-04-13T15:08:55Z,51.057185,-114.125385,169.19,99.56,70.38,1102.5,-24.5,45.37,-1800,1800.57,4.71,7290,-7288.86,0,-0.03,14.25,0.204519444
2017-04-13T15:08:57Z,51.056975,-114.125403,174.38,101.88,71.19,1102.38,-30.5,84.19,450,457.81,139.73,8100,-4833.95,0,0.19,14.25,0.227905556
2017-04-13T15:08:58Z,51.056873,-114.125408,175.25,102,72.88,1102.81,-34.8,40.72,-1575,1575.53,-156.49,-7290,4023.79,0,-0.03,14.19,0.239216667
2017-04-13T15:08:59Z,51.05677,-114.125408,174.25,101.25,73,1103,-27.43,41.36,-675,676.27,2.33,3240,-3237.34,0,-0.06,14.19,0.250705556
2017-04-13T15:09:00Z,51.05667,-114.125412,173.44,100.81,72.31,1102.81,-30.93,40.04,675,676.19,-4.77,4860,-0.29,0,0.06,14.12,0.261827778
2017-04-13T15:09:01Z,51.056567,-114.125415,174.75,101.19,71.81,1103.19,-35.01,41.37,-1350,1350.63,4.8,-7290,2428.01,0,-0.03,14.12,0.273319444
2017-04-13T15:09:02Z,51.05646,-114.125418,174.25,101,72.69,1102.56,-33.28,42.7,2250,2250.41,4.8,12960,3239.18,0,0.02,14.12,0.285180556
2017-04-13T15:09:03Z,51.056355,-114.12542,179,103,81.56,1102.5,-40.14,42.03,225,228.89,-2.42,-7290,-7277.45,0,0.19,14.06,0.296855556
2017-04-13T15:09:05Z,51.056177,-114.125423,-179.25,104,86.81,1101.94,-32.47,71.39,2025,2026.26,105.69,6480,6470.52,0,0.04,14.06,0.316686111
2017-04-13T15:09:06Z,51.056118,-114.125425,-178.88,104.44,87.62,1101,-39.77,23.35,3375,3375.08,-172.93,4860,4855.76,0,0.01,14.06,0.323172222
2017-04-13T15:09:07Z,51.05608,-114.125427,157.5,100,75.56,1101.69,-35.48,15.35,-2475,2475.05,-28.82,-21060,-3240.12,0,-0.01,14,0.327436111
2017-04-13T15:09:08Z,51.056047,-114.125433,146.38,109.44,63.19,1101.81,-40.06,13.45,-450,450.2,-6.85,7290,-7289.45,0,-0.03,14,0.331172222
2017-04-13T15:09:09Z,51.056013,-114.125468,142.94,139.06,59.75,1101.75,-42.97,15.99,225,225.57,9.14,2430,-808.68,0,0.07,14,0.335613889
2017-04-13T15:09:10Z,51.055987,-114.125542,148.25,163.44,59.25,1102.44,-76.9,21.32,-2475,2475.09,19.2,-9720,8098.29,0,-0.01,13.94,0.341536111
2017-04-13T15:09:11Z,51.055978,-114.125653,156.19,174.31,61.44,1102.44,-74.9,28.3,0,28.3,25.11,8910,-8808.47,0,0,13.94,0.349397222
2017-04-13T15:09:13Z,51.055973,-114.125933,158.62,177.5,63.69,1103,-74.13,70.48,-2025,2026.23,151.85,-7290,7192.55,0,-0.03,13.94,0.368975
2017-04-13T15:09:14Z,51.055975,-114.126088,164.62,184.12,70.12,1102.06,-77.48,39,3375,3375.23,-113.3,19440,4856.4,0,0.01,13.94,0.379808333
2017-04-13T15:09:15Z,51.055975,-114.126242,166.5,185.19,69.94,1102.94,-75.81,38.58,-3150,3150.24,-1.53,-23490,-809.96,0,-0.01,13.88,0.390525
2017-04-13T15:09:16Z,51.055975,-114.126395,167.69,186.38,71.75,1103.06,-76.35,38.58,-450,451.65,0,9720,-9714.91,0,-0.09,13.81,0.401241667
2017-04-13T15:09:17Z,51.055978,-114.126545,168.5,187.75,72.19,1102.88,-77,37.76,675,676.06,-2.94,4050,807.86,0,0.06,13.81,0.411730556
2017-04-13T15:09:18Z,51.05598,-114.126697,170.44,188.81,73,1103.06,-78.37,38.17,-675,676.08,1.45,-4860,0.08,0,-0.06,13.81,0.422333333
2017-04-13T15:09:19Z,51.055983,-114.12685,172.19,189.12,73.06,1102.88,-74.97,38.6,675,676.1,1.57,4860,0.09,0,0.06,13.81,0.433055556
2017-04-13T15:09:21Z,51.055985,-114.127152,172.88,189.19,73.5,1102.75,-77.24,75.9,450,456.36,134.28,-810,-791.09,0,0.17,13.75,0.454138889
2017-04-13T15:09:22Z,51.055985,-114.127297,176.25,190.19,74.62,1102.12,-80.71,36.48,2250,2250.3,-141.91,6480,6458.18,0,0.02,13.75,0.464272222
2017-04-13T15:09:23Z,51.055987,-114.127433,179.62,191.5,83.81,1102.19,-79.22,34.39,-225,227.61,-7.52,-8910,-7281.66,0,-0.15,13.75,0.473825
2017-04-13T15:09:24Z,51.055988,-114.127542,163,190.81,79.06,1102.19,-76.47,27.27,0,27.27,-25.65,810,-721.25,0,0,13.69,0.4814
2017-04-13T15:09:25Z,51.055997,-114.127628,141.69,196.94,72.25,1101.88,-76.02,22.06,1125,1125.22,-18.75,4050,3952.62,0,0.02,13.69,0.487527778
2017-04-13T15:09:26Z,51.056017,-114.127708,138.94,225.06,66.88,1102.62,-70.29,21.66,-2700,2700.09,-1.43,-13770,5669.53,0,-0.01,13.69,0.493544444
2017-04-13T15:09:27Z,51.05605,-114.127777,149.94,254.75,62.31,1103,-58.39,21.76,-1350,1350.18,0.38,4860,-4859.68,0,-0.02,13.62,0.499588889
2017-04-13T15:09:29Z,51.056197,-114.127807,163.38,270.25,63.5,1103.06,-62.35,59.19,-225,232.66,134.73,4050,-4023.07,0,-0.26,13.62,0.516030556
2017-04-13T15:09:30Z,51.056287,-114.127808,170.81,276.69,67.5,1103.12,-61.91,36.03,-225,227.87,-83.39,0,-17.24,0,-0.16,13.62,0.526038889
2017-04-13T15:09:31Z,51.056383,-114.127807,171.56,277.44,68.5,1102.94,-60.96,38.7,675,676.11,9.6,3240,1613.67,0,0.06,13.62,0.536788889
2017-04-13T15:09:32Z,51.056488,-114.127803,172.75,278.38,70,1103.62,-58.67,42.04,-2475,2475.36,12.03,-11340,6477.3,0,-0.02,13.56,0.548466667
2017-04-13T15:09:33Z,51.056593,-114.1278,173.94,278.81,71.12,1103.38,-63.43,42.04,900,900.98,-0.01,12150,-5667.75,0,0.05,13.56,0.560144444
2017-04-13T15:09:34Z,51.0567,-114.127797,176.19,279.75,71.81,1103.31,-69.1,42.71,225,229.02,2.41,-2430,-2419.07,0,0.19,13.56,0.572008333
2017-04-13T15:09:35Z,51.056807,-114.127793,177,280.25,72.81,1103.12,-65.32,42.71,675,676.35,0,1620,1610.4,0,0.06,13.56,0.583872222
2017-04-13T15:09:37Z,51.057027,-114.127793,178.88,280.75,73,1103.56,-65.97,88.06,-1575,1577.46,163.28,-8100,3244,0,-0.06,13.5,0.608333333
2017-04-13T15:09:38Z,51.057138,-114.12779,178.31,280.5,73.38,1102.94,-67.93,44.71,2250,2250.44,-156.08,13770,2422.74,0,0.02,13.5,0.620752778
2017-04-13T15:09:39Z,51.057248,-114.127788,179.19,280.75,73.88,1102.38,-63.43,44.03,2025,2025.48,-2.42,-810,-809.88,0,0.02,13.5,0.632983333
2017-04-13T15:09:40Z,51.057358,-114.127788,178.81,280.5,74.38,1102.12,-65.62,44.03,900,901.08,0,-4050,-4047.85,0,0.05,13.44,0.645213889
2017-04-13T15:09:41Z,51.057465,-114.127788,177.62,280.19,74.75,1101.94,-67.27,42.7,675,676.35,-4.81,-810,-809.02,0,0.06,13.44,0.657075
2017-04-13T15:09:42Z,51.05757,-114.12779,-178.88,281.38,77.75,1101.25,-63.28,42.03,2475,2475.36,-2.39,6480,6476.43,0,0.02,13.44,0.66875
2017-04-13T15:09:43Z,51.057665,-114.12779,171,277.94,75,1101.62,-73.8,38.03,-1350,1350.54,-14.42,-13770,-4049.36,0,-0.03,13.38,0.679313889
2017-04-13T15:09:44Z,51.057758,-114.12779,177.5,279.44,74.94,1101.06,-74.31,37.36,2025,2025.34,-2.4,12150,2429.31,0,0.02,13.38,0.689691667
2017-04-13T15:09:46Z,51.057938,-114.127792,177.44,279.5,73.5,1101.12,-73.38,72.05,-225,236.26,124.9,-8100,-6440.72,0,-0.32,13.38,0.709705556
2017-04-13T15:09:47Z,51.05803,-114.127792,178.75,279.75,72.69,1101.62,-75.22,36.69,-1800,1800.37,-127.29,-5670,5630.83,0,-0.02,13.31,0.719897222
2017-04-13T15:09:48Z,51.05812,-114.127793,178.81,279.5,71.88,1101.25,-74.48,36.03,1350,1350.48,-2.39,11340,-1619.62,0,0.03,13.38,0.729905556
2017-04-13T15:09:49Z,51.058215,-114.127795,177.12,278.94,72.44,1101.75,-79.38,38.03,-1800,1800.4,7.2,-11340,1619.72,0,-0.02,13.31,0.740469444
2017-04-13T15:09:50Z,51.05831,-114.127797,174.44,278.56,73.69,1101.5,-86.61,38.03,900,900.8,0.01,9720,-3238.55,0,0.04,13.31,0.751033333
2017-04-13T15:09:51Z,51.058403,-114.127797,-179.88,281.94,84,1100.44,-85.88,37.36,3825,3825.18,-2.41,10530,10527.77,0,0.01,13.25,0.761411111
2017-04-13T15:09:52Z,51.058482,-114.127795,179.25,283.12,84.56,1099.94,-87.05,31.36,1800,1800.27,-21.61,-7290,-7289.67,0,0.02,13.25,0.770122222
2017-04-13T15:09:54Z,51.058587,-114.127778,133,287.56,74.88,1100.81,-76.29,42.24,-3150,3150.28,39.18,-17820,4860.04,0,-0.01,13.25,0.781855556
2017-04-13T15:09:55Z,51.058622,-114.127745,139.44,313.5,69.19,1100.62,1.59,16.33,675,675.2,-93.28,13770,-8910.31,0,0.02,13.25,0.786391667
2017-04-13T15:09:56Z,51.058648,-114.127683,145.56,336.44,64.31,1100.88,42.71,18.83,-900,900.2,9.02,-5670,810,0,-0.02,13.25,0.791622222
2017-04-13T15:09:57Z,51.058665,-114.127592,153.19,350.69,63.94,1101.38,51.12,24.01,-1800,1800.16,18.64,-3240,3239.87,0,-0.01,13.19,0.798291667
2017-04-13T15:09:58Z,51.058673,-114.127478,155.81,355.94,64.62,1100.94,45.29,28.71,1575,1575.26,16.92,12150,-809.63,0,0.02,13.19,0.806266667
2017-04-13T15:09:59Z,51.05868,-114.127348,160.12,2.75,69.88,1100.94,56.88,32.82,0,32.82,14.79,-5670,-5552.81,0,0,13.19,0.815383333
2017-04-13T15:10:00Z,51.05868,-114.127205,163.12,4.25,69.19,1101,61.95,36.06,-225,227.87,11.68,-810,702.2,0,-0.16,13.12,0.8254
2017-04-13T15:10:02Z,51.058678,-114.126897,164.5,4.62,70.12,1101.06,64.61,77.58,-225,238,149.46,0,36.46,0,-0.34,13.12,0.84695
2017-04-13T15:10:03Z,51.05868,-114.126733,165.06,4.81,71.88,1101.5,67.15,41.1,-1575,1575.54,-131.32,-4860,4815.14,0,-0.03,13.12,0.858366667
2017-04-13T15:10:04Z,51.058683,-114.126572,168.56,346.94,67.94,1101,-3.76,40.69,1800,1800.46,-1.45,12150,809.73,0,0.02,13.06,0.869669444
2017-04-13T15:10:05Z,51.058688,-114.126412,0.56,358.62,84.81,1100.94,-11.38,40.3,225,228.58,-1.41,-5670,-5658.76,0,0.18,13.06,0.880863889
2017-04-13T15:10:06Z,51.058692,-114.12626,0.88,154.75,83.69,1101,-14.68,38.18,-225,228.22,-7.64,-1620,-1.31,0,-0.17,13.06,0.891469444
2017-04-13T15:10:07Z,51.058695,-114.1261,173.31,152.75,78.56,1100.69,-15.1,40.28,1125,1125.72,7.55,4860,3231.02,0,0.04,13.06,0.902658333
2017-04-13T15:10:08Z,51.058707,-114.12595,2.25,183.94,44.19,1100.25,104.3,38.03,1575,1575.46,-8.1,1620,1619.06,0,0.02,13.06,0.913222222
2017-04-13T15:10:10Z,51.058702,-114.125673,3.44,180.5,24.62,1101,79.88,69.63,-2700,2700.9,113.78,-15390,4051.58,0,-0.03,13,0.932563889
2017-04-13T15:10:11Z,51.0587,-114.125527,4.5,182.12,26.5,1100.81,-11.71,36.91,675,676.01,-117.82,12150,-7289.6,0,0.05,13.06,0.942816667
2017-04-13T15:10:12Z,51.058705,-114.125372,4.12,184.38,30.62,1100.88,-5.92,39.05,-225,228.36,7.72,-3240,-1611.52,0,-0.17,13.12,0.953663889
2017-04-13T15:10:13Z,51.058707,-114.125223,5.69,188.06,34.88,1101.38,-37.27,37.33,-1800,1800.39,-6.2,-5670,5659.28,0,-0.02,13.12,0.964033333
2017-04-13T15:10:14Z,51.058705,-114.125075,3.5,184.25,69.06,1101.12,-153.55,37.33,900,900.77,0,9720,-3238.61,0,0.04,13.12,0.974402778
2017-04-13T15:10:15Z,51.058707,-114.124922,-168.5,197.44,50.69,1101.19,-151.28,38.58,-225,228.28,4.53,-4050,-2420.96,0,-0.17,13.19,0.985119444
2017-04-13T15:10:16Z,51.058707,-114.124765,-164.5,169.62,16.06,1101.06,-118.59,39.42,450,451.72,3,2430,804.38,0,0.09,13.19,0.996069444
2017-04-13T15:10:18Z,51.058713,-114.124487,-166.25,168.5,19.69,1101.5,-119.33,70.08,-1575,1576.56,110.37,-7290,4049.41,0,-0.04,13.25,1.015536111
2017-04-13T15:10:19Z,51.058713,-114.12434,-157.25,218.19,51.44,1101.38,-134.04,36.9,450,451.51,-119.44,7290,-4050.17,0,0.08,13.25,1.025786111
2017-04-13T15:10:20Z,51.0587,-114.124193,5.06,198,73.38,1101.56,-140.75,37.28,-675,676.03,1.39,-4050,808.27,0,-0.06,13.31,1.036141667
2017-04-13T15:10:21Z,51.0587,-114.124058,-0.31,206.81,22.75,1101.38,-33.13,33.97,675,675.85,-11.94,4860,-0.63,0,0.05,13.38,1.045577778
2017-04-13T15:10:22Z,51.058705,-114.123918,0.56,195.88,26.38,1101.94,-38.95,35.28,-2025,2025.31,4.74,-9720,4858.03,0,-0.02,13.38,1.055377778
2017-04-13T15:10:23Z,51.058698,-114.123788,-10.12,215.06,17.88,1101.56,-16.55,32.82,1350,1350.4,-8.88,12150,-2429.67,0,0.02,13.38,1.064494444
2017-04-13T15:10:24Z,51.058698,-114.12365,-10.88,217.31,23.06,1101.5,-19.59,34.8,225,227.68,7.15,-4050,-4041.8,0,0.15,13.44,1.074161111
2017-04-13T15:10:26Z,51.058693,-114.123387,-13.31,226.06,16.56,1101,-27.41,66.28,1800,1801.22,113.33,5670,5664.76,0,0.04,13.44,1.092572222
2017-04-13T15:10:27Z,51.05869,-114.123277,-10.88,227.5,16.75,1101.25,-16.1,27.71,-900,900.43,-138.86,-9720,-3242.86,0,-0.03,13.44,1.100269444
2017-04-13T15:10:28Z,51.058687,-114.123193,-12.56,226.25,24.44,1100.81,-38.27,21.01,1575,1575.14,-24.13,8910,2428.97,0,0.01,13.5,1.106105556
2017-04-13T15:10:29Z,51.058683,-114.123123,27.62,168.88,60.69,1101.12,-127.67,17.66,-1125,1125.14,-12.05,-9720,-1620.01,0,-0.02,13.5,1.111011111
2017-04-13T15:10:30Z,51.058693,-114.12308,-148.06,140.44,72.75,1101.19,-68.17,11.61,-225,225.3,-21.78,3240,-3239.42,0,-0.05,13.5,1.114236111
2017-04-13T15:10:31Z,51.058718,-114.123023,-159.69,115.19,64.56,1101.25,-69.27,17.42,-225,225.67,20.92,0,1.35,0,-0.08,13.5,1.119075
2017-04-13T15:10:32Z,51.058762,-114.12298,-168.62,92.62,61.81,1101.81,-70.31,20.49,-2025,2025.1,11.04,-6480,6477.95,0,-0.01,13.44,1.124766667
2017-04-13T15:10:34Z,51.058863,-114.122927,-171.06,78.69,66.12,1102,-69.57,42.85,-675,676.36,80.52,4860,-4855.48,0,-0.06,13.44,1.136669444
2017-04-13T15:10:35Z,51.058917,-114.122922,-174.38,74.69,70.81,1102.94,-71.03,21.39,-3375,3375.07,-77.27,-9720,9715.35,0,-0.01,13.44,1.142611111
2017-04-13T15:10:36Z,51.058963,-114.122918,-170.56,60.56,70.81,1103.38,-69.73,18.69,-1575,1575.11,-9.69,6480,-6479.84,0,-0.01,13.38,1.147802778
2017-04-13T15:10:37Z,51.058997,-114.122942,-170.88,15.12,72.31,1103.38,-69.62,14.58,0,14.58,-14.81,5670,-5617.91,0,0,13.38,1.151852778
2017-04-13T15:10:38Z,51.059005,-114.122977,-4,335.81,85.75,1103.25,-69.9,9.42,450,450.1,-18.59,1620,1567.87,0,0.02,13.38,1.154469444
2017-04-13T15:10:39Z,51.059002,-114.123,-3.56,322.12,68.69,1103,-72.07,6.02,900,900.02,-12.23,1620,1619.72,0,0.01,13.31,1.156141667
2017-04-13T15:10:40Z,51.059005,-114.123,-0.31,321.25,74.38,1103.62,-71.34,1.32,-2250,2250,-16.9,-11340,4859.93,0,0,13.31,1.156508333
2017-04-13T15:10:41Z,51.059005,-114.123,-6.44,321.62,71.19,1103.12,-70.99,0,1800,1800,-4.76,14580,-1620,0,0,13.31,1.156508333
2017-04-13T15:10:43Z,51.059007,-114.122983,0,304.62,72,1103.62,-71,4.24,-1800,1800,15.27,-12960,0.02,0,0,13.25,1.157686111
2017-04-13T15:10:44Z,51.059008,-114.122972,4.94,291.94,73.75,1103.75,-70.5,2.98,-450,450.01,-4.54,4860,-4859.98,0,-0.01,13.25,1.158513889
2017-04-13T15:10:45Z,51.059008,-114.122968,6.69,291.25,81.19,1103.38,-70.21,0.76,1350,1350,-7.97,6480,3239.97,0,0,13.25,1.158725
2017-04-13T15:10:46Z,51.059003,-114.122972,-167.81,287.5,65.5,1103.19,-67.98,2.16,675,675,5.03,-2430,-2429.99,0,0,13.25,1.159325
2017-04-13T15:10:47Z,51.058985,-114.122973,-173.44,249.38,66.44,1103.56,-66.2,7.35,-1350,1350.02,18.66,-7290,2430.06,0,-0.01,13.19,1.161366667
2017-04-13T15:10:48Z,51.058957,-114.122968,-174.44,245.69,70.88,1102.88,-67.17,11.41,2475,2475.03,14.62,13770,4050.02,0,0,13.19,1.164536111
2017-04-13T15:10:49Z,51.058917,-114.12296,-177.25,249.44,72.38,1101.81,-68.03,16.15,3825,3825.03,17.06,4860,4860.03,0,0,13.12,1.169022222
2017-04-13T15:10:51Z,51.058827,-114.122948,-10.56,253.75,71,1101.44,-68.87,36.14,1350,1350.48,72,-8910,-8908.38,0,0.03,13.12,1.179061111
2017-04-13T15:10:52Z,51.058798,-114.122945,-16.19,254.5,72.31,1101.38,-68.03,11.38,225,225.29,-89.17,-4050,-4050.71,0,0.05,13.12,1.182222222
2017-04-13T15:10:53Z,51.058768,-114.122937,-104.75,239.38,79.94,1100.69,-67.68,12.19,2475,2475.03,2.94,8100,8099.07,0,0,13.12,1.185608333
2017-04-13T15:10:54Z,51.058735,-114.122913,-152.94,216.69,58.62,1100.88,-66.63,14.58,-675,675.16,8.58,-11340,-6479.54,0,-0.02,13.06,1.189658333
2017-04-13T15:10:55Z,51.058705,-114.122852,-99.06,176.81,80,1101.19,-66.72,19.62,-1125,1125.17,18.16,-1620,1620.05,0,-0.02,13,1.195108333
2017-04-13T15:10:56Z,51.058698,-114.122757,-151.19,167.69,75.88,1100.94,-67.59,24.05,900,900.32,15.94,7290,-809.46,0,0.03,13,1.201788889
2017-04-13T15:10:57Z,51.058697,-114.122652,-120.94,204.06,62.06,1101.06,50.71,26.43,-450,450.78,8.56,-4860,-1618.37,0,-0.06,13,1.209130556
2017-04-13T15:10:59Z,51.058685,-114.122428,-61.62,200.38,59.12,1101.69,38.48,56.38,-2250,2250.71,107.83,-6480,6479.75,0,-0.03,13,1.224791667
2017-04-13T15:11:00Z,51.05868,-114.122312,-19.81,194.12,37.25,1101.81,36.66,29.42,-450,450.96,-97.07,6480,-6479.08,0,-0.07,13.06,1.232963889
2017-04-13T15:11:01Z,51.05868,-114.122183,-40.38,214.94,27.19,1101.5,40.25,32.28,1125,1125.46,10.32,5670,2428.21,0,0.03,13.19,1.241930556
2017-04-13T15:11:02Z,51.058678,-114.12205,-40.75,224.06,24.12,1101.44,42.48,33.55,225,227.49,4.56,-3240,-3232.71,0,0.15,13.19,1.25125
2017-04-13T15:11:03Z,51.058683,-114.121913,-35.88,224.94,19.19,1101.62,42.62,34.44,-675,675.88,3.2,-3240,1614.21,0,-0.05,13.25,1.260816667
2017-04-13T15:11:04Z,51.058687,-114.121783,-35.5,225.44,20.19,1101.75,43.63,32.73,-450,451.19,-6.15,810,-808.88,0,-0.07,13.25,1.269908333
2017-04-13T15:11:05Z,51.058688,-114.121652,-36.12,225.25,20.12,1101.25,42.87,33.13,1800,1800.3,1.43,8100,4856.82,0,0.02,13.25,1.279111111
2017-04-13T15:11:07Z,51.058697,-114.121432,-44.69,223.81,13.75,1101.25,41.08,55.45,0,55.45,80.35,-6480,-6281.48,0,0,13.31,1.294513889
2017-04-13T15:11:08Z,51.058695,-114.121317,-46.31,225.06,15.06,1102.31,40.18,28.94,-3825,3825.11,-95.43,-13770,13570.77,0,-0.01,13.38,1.302552778
2017-04-13T15:11:09Z,51.058695,-114.121197,-46,223.56,17.19,1102.06,40.18,30.19,900,900.51,4.49,17010,-10528.57,0,0.03,13.38,1.310938889
2017-04-13T15:11:10Z,51.0587,-114.121072,-42.31,226,14.81,1101.88,39.23,31.51,675,675.74,4.76,-810,-809.18,0,0.05,13.44,1.319691667
2017-04-13T15:11:11Z,51.058695,-114.120945,-47.88,231.38,14.94,1101.31,42.46,31.93,2025,2025.25,1.51,4860,4858.26,0,0.02,13.5,1.328561111
2017-04-13T15:11:12Z,51.05869,-114.120815,-42.44,255,-2.88,1102.06,44.65,32.77,-2700,2700.2,3.01,-17010,2429.81,0,-0.01,13.5,1.337663889
2017-04-13T15:11:13Z,51.058687,-114.120687,-41.56,249.62,6.44,1101.38,52.02,32.31,2475,2475.21,-1.63,18630,-809.96,0,0.01,13.62,1.346638889
2017-04-13T15:11:15Z,51.058685,-114.120422,-45.5,246.94,5.25,1101.69,55.13,66.67,-1125,1126.97,123.7,-12960,-4853.65,0,-0.06,13.62,1.365158333
2017-04-13T15:11:16Z,51.058685,-114.120287,-45.56,241.5,3.69,1101.25,51.58,33.96,1575,1575.37,-117.76,9720,1614.21,0,0.02,13.69,1.374591667
2017-04-13T15:11:17Z,51.058688,-114.120148,-48,242.19,6,1101.19,56.68,34.83,225,227.68,3.11,-4860,-4851.67,0,0.15,13.75,1.384266667
2017-04-13T15:11:18Z,51.05869,-114.120003,-49.56,248.75,3.69,1101.25,59,36.49,-225,227.94,5.97,-1620,0.93,0,-0.16,13.75,1.394402778
2017-04-13T15:11:19Z,51.058695,-114.11986,-50.19,253,2.19,1100.94,61.61,36.12,1125,1125.58,-1.33,4860,3231.51,0,0.03,13.81,1.404436111
2017-04-13T15:11:20Z,51.0587,-114.119727,-53.88,257.94,3.31,1099.81,62.9,33.6,4050,4050.14,-9.04,10530,10528.42,0,0.01,13.94,1.413769444
2017-04-13T15:11:21Z,51.0587,-114.119607,-86.5,263.88,-12.56,1100.56,49.66,30.19,-2700,2700.17,-12.29,-24300,-4859.89,0,-0.01,13.94,1.422155556
2017-04-13T15:11:23Z,51.058665,-114.11945,-90.31,267.94,-18.75,1100.69,39.04,41.83,-450,451.94,41.91,8100,-8093.62,0,-0.09,14,1.433775
2017-04-13T15:11:24Z,51.058623,-114.119398,-84.38,291.88,-18.12,1100.75,49.25,21.14,-225,225.99,-74.48,810,-813.42,0,-0.09,14.06,1.439647222
2017-04-13T15:11:25Z,51.058578,-114.119363,-8.44,304.06,24.69,1101.12,11.56,20.05,-1350,1350.15,-3.94,-4050,4046.97,0,-0.01,14.12,1.445216667
2017-04-13T15:11:26Z,51.058527,-114.119345,-12.88,298.19,44.5,1101.69,11,21.19,-2025,2025.11,4.1,-2430,2429.86,0,-0.01,14.12,1.451102778
2017-04-13T15:11:27Z,51.058458,-114.119347,5.19,281.44,11.38,1101.75,19.8,27.36,-225,226.66,22.21,6480,-6474.43,0,-0.12,14.12,1.458702778
2017-04-13T15:11:28Z,51.058383,-114.11934,-9.31,291.62,2.25,1101.62,12.03,30.07,450,451,9.77,2430,807.65,0,0.07,14.12,1.467055556
2017-04-13T15:11:29Z,51.058297,-114.119347,-11.12,286,1.94,1101.5,11.7,34.73,450,451.34,16.79,0,1.21,0,0.08,14.19,1.476702778
2017-04-13T15:11:31Z,51.058132,-114.119343,-14.44,287.12,2.81,1101.19,12.98,66.05,1125,1126.94,112.75,2430,2432.16,0,0.06,14.19,1.49505
2017-04-13T15:11:32Z,51.058057,-114.119345,-17.38,285.94,2.25,1101,12.09,30.02,675,675.67,-129.7,-1620,-1624.57,0,0.04,14.19,1.503388889
2017-04-13T15:11:33Z,51.057985,-114.119345,-24.12,294.62,4.19,1100.62,3.86,28.69,1350,1350.3,-4.81,2430,2428.69,0,0.02,14.25,1.511358333
2017-04-13T15:11:34Z,51.057925,-114.119363,-40.19,319.44,-2.06,1100.81,8.25,24.45,-675,675.44,-15.24,-7290,-2429.5,0,-0.04,14.31,1.51815
2017-04-13T15:11:35Z,51.05788,-114.119402,-39.56,345.38,3.12,1101,-7.87,20.43,-675,675.31,-14.48,0,-0.48,0,-0.03,14.31,1.523825
2017-04-13T15:11:36Z,51.057855,-114.119473,-34.69,295.75,7.12,1101,-4.34,20.62,0,20.62,0.7,2430,-2356.87,0,0,14.38,1.529552778
2017-04-13T15:11:37Z,51.057847,-114.119562,-5.5,254.12,30.19,1101.25,-26.37,22.47,-900,900.28,6.65,-3240,3166.76,0,-0.02,14.38,1.535794444
2017-04-13T15:11:39Z,51.057835,-114.119808,-7.06,254.81,31.19,1101.31,-22.85,62.24,-225,233.45,143.15,2430,-2400.6,0,-0.28,14.38,1.553083333
2017-04-13T15:11:40Z,51.057827,-114.119933,-9.06,256.19,29.81,1100.69,-19.22,31.63,2250,2250.22,-110.19,8910,7260.39,0,0.01,14.44,1.561869444
2017-04-13T15:11:41Z,51.05783,-114.12004,-0.88,252.56,54.31,1100.88,-46.76,26.87,-675,675.53,-17.12,-10530,-5668.88,0,-0.04,14.44,1.569333333
2017-04-13T15:11:42Z,51.057833,-114.12012,-4.5,245.5,52.56,1100.31,-47.32,20.17,2025,2025.1,-24.11,9720,4858.44,0,0.01,14.44,1.574936111
2017-04-13T15:11:43Z,51.057842,-114.120168,1.88,239.5,50.56,1100.06,-44.77,12.61,900,900.09,-27.21,-4050,-4050.04,0,0.01,14.44,1.578438889
2017-04-13T15:11:44Z,51.05784,-114.12019,9.69,242.56,56.56,1100.88,-66.54,5.49,-2925,2925.01,-25.64,-13770,7289.7,0,0,14.5,1.579963889
2017-04-13T15:11:45Z,51.057838,-114.120218,-2.75,220.06,55.88,1101.06,-91.51,7.15,-675,675.04,5.99,8100,-8099.88,0,-0.01,14.5,1.58195
2017-04-13T15:11:47Z,51.05779,-114.120317,40.12,136.88,50.94,1101.44,-160.29,31.41,-1350,1350.37,87.32,-2430,2431.18,0,-0.02,14.5,1.590675
2017-04-13T15:11:48Z,51.05773,-114.120338,-5.88,139.75,49.12,1101.44,-109.5,24.63,0,24.63,-24.41,4860,-4772.66,0,0,14.5,1.597516667
2017-04-13T15:11:49Z,51.057662,-114.120347,-8.75,147.5,56.31,1101.25,-108.53,27.43,675,675.56,10.1,2430,2343.35,0,0.04,14.56,1.605136111
2017-04-13T15:11:50Z,51.057582,-114.120347,-6.12,172.06,55.25,1101.19,-124.71,32.02,225,227.27,16.52,-1620,-1613.84,0,0.14,14.56,1.614030556
2017-04-13T15:11:51Z,51.057497,-114.120342,-15.94,178.12,28.69,1101.5,-68.84,34.05,-1125,1125.52,7.29,-4860,3233.69,0,-0.03,14.56,1.623488889
2017-04-13T15:11:52Z,51.057407,-114.120342,-14.25,192.81,40.06,1101.25,-93.52,36.03,900,900.72,7.12,7290,-809.26,0,0.04,14.62,1.633497222
2017-04-13T15:11:53Z,51.057315,-114.12034,-12,199.12,40.44,1101.25,-90.29,36.69,0,36.69,2.41,-3240,-3110.49,0,0,14.62,1.643688889
2017-04-13T15:11:55Z,51.05715,-114.120345,-13,205.62,40.44,1100.75,-89.73,66.06,1800,1801.21,105.71,6480,6352.26,0,0.04,14.62,1.662038889
2017-04-13T15:11:56Z,51.057087,-114.12035,-13,208.12,39.44,1100.56,-98.83,25.38,675,675.48,-146.43,-4050,-4052.64,0,0.04,14.62,1.669088889
2017-04-13T15:11:57Z,51.057053,-114.12036,-6.31,205.88,39.06,1100.06,-94.68,13.58,1800,1800.05,-42.5,4050,4048.47,0,0.01,14.69,1.672861111
2017-04-13T15:11:58Z,51.057042,-114.120367,-20.94,222.31,-35.06,1101,-28.38,4.95,-3375,3375,-31.04,-18630,5669.83,0,0,14.69,1.674236111
2017-04-13T15:11:59Z,51.057032,-114.12037,-18,212.56,-35.25,1100.94,-8.41,4.1,225,225.04,-3.07,12960,-11339.88,0,0.02,14.69,1.675375
2017-04-13T15:12:00Z,51.056997,-114.120368,-25.25,208.19,-28.25,1101.12,-7.68,14.02,-675,675.15,35.69,-3240,1620.39,0,-0.02,14.69,1.679269444
2017-04-13T15:12:02Z,51.056872,-114.120355,-29.19,205,-39.81,1101.69,-9.65,50.15,-2025,2025.62,130.07,-4860,4861.71,0,-0.02,14.69,1.6932
2017-04-13T15:12:03Z,51.056783,-114.120347,-35.5,202.12,-37.06,1101.5,-34.7,35.42,675,675.93,-53.02,9720,-4858.89,0,0.05,14.75,1.703038889
2017-04-13T15:12:04Z,51.05669,-114.120337,-33.06,203.56,-38.25,1102.12,-46.97,37.44,-2250,2250.31,7.28,-10530,5667.78,0,-0.02,14.75,1.713438889
2017-04-13T15:12:05Z,51.05659,-114.120333,-40.81,203.81,-48,1102.44,-51.13,40.04,-1125,1125.71,9.34,4050,-4048.56,0,-0.04,14.75,1.724561111
2017-04-13T15:12:06Z,51.056493,-114.120333,-25.56,201.25,-52.06,1102.06,-54.87,38.69,1350,1350.55,-4.83,8910,809.43,0,0.03,14.81,1.735308333
2017-04-13T15:12:07Z,51.0564,-114.120332,-50.06,209.25,-44.56,1102.5,-51.5,37.36,-1575,1575.44,-4.8,-10530,809.6,0,-0.02,14.81,1.745686111
2017-04-13T15:12:08Z,51.0563,-114.12033,-34.62,165.38,-34.31,1102.69,-110.47,40.03,-675,676.19,9.61,3240,-3237.33,0,-0.06,14.81,1.756805556
2017-04-13T15:12:10Z,51.056148,-114.120337,-35.94,166.25,-42.44,1100.5,-93.79,60.73,7875,7875.23,74.53,30780,25916.57,0,0.01,15.38,1.773675
2017-04-13T15:12:11Z,51.056095,-114.120348,-48.69,188.62,-48.12,1101.12,-58.08,21.55,-2250,2250.1,-141.06,-36450,-20250.47,0,-0.01,15.25,1.779661111
2017-04-13T15:12:12Z,51.056055,-114.120372,-101.62,236.25,-20.81,1101.06,-84.22,17.06,225,225.65,-16.17,8910,-7288.05,0,0.08,15.19,1.7844
2017-04-13T15:12:13Z,51.056023,-114.120438,-84.62,235.31,-11.75,1101.12,-95.33,21.03,-225,225.98,14.29,-1620,1.2,0,-0.09,15.25,1.790241667
2017-04-13T15:12:14Z,51.056007,-114.120533,-11.94,206.56,-34.12,1101.75,-76.95,24.82,-2250,2250.14,13.65,-7290,7286.96,0,-0.01,15.25,1.797136111
2017-04-13T15:12:15Z,51.055998,-114.120645,-2.12,197.94,-35.25,1103.12,-69.88,28.29,-4950,4950.08,12.52,-9720,9719.8,0,-0.01,15.25,1.804994444
2017-04-13T15:12:16Z,51.05599,-114.12077,-1.38,195.88,-40.31,1102.81,-70.25,31.63,1125,1125.44,12,21870,-13768.69,0,0.03,15.31,1.813780556
2017-04-13T15:12:18Z,51.05598,-114.121063,-1.81,196.44,-37.69,1103.12,-68.25,73.91,-1125,1127.43,152.23,-8100,7.13,0,-0.07,15.31,1.834311111
2017-04-13T15:12:19Z,51.055975,-114.121212,-2.56,194.12,-36.19,1103.06,-72.15,37.37,225,228.08,-131.53,4860,-3237.63,0,0.17,15.38,1.844691667
2017-04-13T15:12:20Z,51.055972,-114.121367,-2.56,196.12,-34.12,1103.25,-68.09,39.02,-675,676.13,5.92,-3240,1612.96,0,-0.06,15.44,1.855530556
2017-04-13T15:12:21Z,51.055968,-114.121523,-4,196.81,-34.69,1103.69,-67.86,39.44,-1575,1575.49,1.51,-3240,3237.72,0,-0.03,15.44,1.866486111
2017-04-13T15:12:22Z,51.055965,-114.121685,-5.5,196.25,-35.06,1103.31,-68.86,40.7,1350,1350.61,4.53,10530,-809.57,0,0.03,15.5,1.877791667
2017-04-13T15:12:23Z,51.055965,-114.121842,-6.94,195.38,-34.5,1103.31,-66.89,39.42,0,39.42,-4.61,-4860,-4720.3,0,0,15.56,1.888741667
2017-04-13T15:12:24Z,51.055965,-114.121995,-9.69,194.19,-32.31,1103.56,-70.16,38.58,-900,900.83,-3.02,-3240,3101.07,0,-0.04,15.5,1.899458333
2017-04-13T15:12:26Z,51.055967,-114.1223,-17.06,186.31,-27.88,1103.44,-82.15,76.74,450,456.5,137.38,4860,-1599.59,0,0.17,15.56,1.920775
2017-04-13T15:12:27Z,51.055963,-114.122433,-17.12,187.69,-29.75,1103.38,-81.15,33.57,225,227.49,-155.41,-810,-824.42,0,0.15,15.56,1.9301
2017-04-13T15:12:28Z,51.055963,-114.122552,-11.19,188.81,-33.88,1103.12,-80.22,29.77,900,900.49,-13.68,2430,2422.8,0,0.03,15.62,1.938369444
2017-04-13T15:12:29Z,51.055963,-114.122645,-9.06,189.06,-30.69,1102.56,-76.54,23.48,2025,2025.14,-22.64,4050,4048.72,0,0.01,15.69,1.944891667
2017-04-13T15:12:30Z,51.055963,-114.122715,39.81,172.69,-20.12,1102.62,-75.68,17.61,-225,225.69,-21.14,-8100,-6478.01,0,-0.08,15.69,1.949783333
2017-04-13T15:12:31Z,51.055963,-114.122768,58.94,147.69,-25.12,1103.06,-100.95,13.42,-1575,1575.06,-15.09,-4860,4857.73,0,-0.01,15.69,1.953511111
2017-04-13T15:12:32Z,51.05596,-114.122823,52.44,132.38,-19.31,1102.38,-146.31,13.9,2475,2475.04,1.74,14580,3239.93,0,0.01,15.75,1.957372222
2017-04-13T15:12:34Z,51.055882,-114.122912,41.44,111.69,-20,1102.5,132.8,38.43,-450,451.64,88.31,-10530,-7284.24,0,-0.09,15.75,1.968047222
2017-04-13T15:12:35Z,51.055822,-114.122917,1.25,119.19,-16.06,1103.31,-179.1,24.05,-2925,2925.1,-51.76,-8910,8904.46,0,-0.01,15.81,1.974727778
2017-04-13T15:12:36Z,51.05574,-114.122913,-4.81,118.69,-16.44,1103.62,180,32.7,-1125,1125.48,31.14,6480,-6478.65,0,-0.03,15.88,1.983811111
2017-04-13T15:12:37Z,51.055648,-114.122915,-5.44,117.25,-14.56,1102.94,-141.34,36.69,2475,2475.27,14.37,12960,4859.27,0,0.01,15.88,1.994002778
2017-04-13T15:12:38Z,51.055553,-114.12292,-5.62,117.25,-14.38,1103.5,-160.5,38.05,-2025,2025.36,4.87,-16200,-1619.69,0,-0.02,15.88,2.004572222
2017-04-13T15:12:39Z,51.05546,-114.122923,-5.19,118.81,-14.25,1103.12,-171.07,37.37,1350,1350.52,-2.44,12150,-2429.43,0,0.03,15.94,2.014952778
2017-04-13T15:12:40Z,51.055372,-114.122928,-8.75,120.81,-19.19,1102.69,-161.57,35.38,1575,1575.4,-7.16,810,809.57,0,0.02,15.94,2.024780556
2017-04-13T15:12:42Z,51.055228,-114.122932,-1.44,118.25,-18.38,1101.75,165.96,57.38,3375,3375.49,79.2,6480,6480.33,0,0.02,16,2.040719444
2017-04-13T15:12:43Z,51.055185,-114.122925,76.81,71,-39.81,1102.19,67.38,17.43,-1575,1575.1,-143.83,-17820,-6481.41,0,-0.01,16,2.045561111
2017-04-13T15:12:44Z,51.055148,-114.122902,76.56,48.25,-33.12,1102.25,10.78,15.81,-225,225.55,-5.83,4860,-4858.35,0,-0.07,16,2.049952778
2017-04-13T15:12:45Z,51.05512,-114.122843,71,312,-34,1102.69,-20.66,18.55,-1575,1575.11,9.88,-4860,4858.4,0,-0.01,16,2.055105556
2017-04-13T15:12:46Z,51.055107,-114.12276,22.69,295.88,-2.25,1102.62,14.69,21.64,225,226.04,11.11,6480,-4856.66,0,0.1,16.06,2.061116667
2017-04-13T15:12:47Z,51.055105,-114.122657,-2.62,293.12,0.88,1102.56,20.32,26.01,225,226.5,15.74,0,1.66,0,0.12,16.19,2.068341667
2017-04-13T15:12:48Z,51.055112,-114.122532,-2.62,289.31,7.94,1103.31,20.64,31.56,-2700,2700.18,20,-10530,8905.27,0,-0.01,16.19,2.077108333
2017-04-13T15:12:50Z,51.055117,-114.122245,2.88,289.88,5.06,1102.75,21.02,72.16,2025,2026.29,146.13,17010,-2426.04,0,0.04,16.19,2.097152778
2017-04-13T15:12:51Z,51.055118,-114.122085,8.31,292.94,11.06,1103.19,25.98,40.26,-1575,1575.51,-114.82,-12960,-1622.77,0,-0.03,16.19,2.108336111
2017-04-13T15:12:52Z,51.055118,-114.121923,-23.38,258.31,11.12,1103.5,-2.73,40.67,-1125,1125.74,1.49,1620,-1619.21,0,-0.04,16.25,2.119633333
2017-04-13T15:12:53Z,51.055118,-114.121765,-52.75,244.88,18.5,1102.94,-21.92,39.84,2025,2025.39,-3.02,11340,3238.76,0,0.02,16.31,2.1307
2017-04-13T15:12:54Z,51.05512,-114.121612,-34.44,253.81,18.06,1103.06,-13.56,38.58,-450,451.65,-4.5,-8910,-5665.47,0,-0.09,16.38,2.141416667
2017-04-13T15:12:55Z,51.055122,-114.121465,-19.94,293.06,16.19,1103.31,14.26,36.91,-900,900.76,-6.03,-1620,1616.78,0,-0.04,16.38,2.151669444
2017-04-13T15:12:56Z,51.055123,-114.121318,-5.94,297.38,15.06,1103.12,25.8,36.91,675,676.01,0,5670,-809.09,0,0.05,16.44,2.161922222
2017-04-13T15:12:57Z,51.055122,-114.12117,-11.19,295.5,16.06,1103.44,24.67,37.33,-1125,1125.62,1.51,-6480,1618.6,0,-0.03,16.44,2.172291667
2017-04-13T15:12:59Z,51.05512,-114.120878,-15.75,295.5,12.12,1103.31,27.12,73.39,450,455.94,129.82,5670,-2410.83,0,0.16,16.44,2.192677778
2017-04-13T15:13:00Z,51.055118,-114.120752,-19.38,300.69,17,1102.56,26.89,31.88,2700,2700.19,-149.44,8100,8079.28,0,0.01,16.5,2.201533333
2017-04-13T15:13:01Z,51.055118,-114.120645,-19.38,299.88,18.88,1102.62,25.33,26.84,-225,226.59,-18.15,-10530,-8904.94,0,-0.12,16.5,2.208988889
2017-04-13T15:13:02Z,51.055115,-114.120562,-23.81,311.06,47.38,1102.06,62.46,21.01,2025,2025.11,-20.98,8100,6474.65,0,0.01,16.56,2.214825
2017-04-13T15:13:03Z,51.055112,-114.120512,-7.62,301.94,-34.75,1102.38,30.82,12.65,-1125,1125.07,-30.09,-11340,-3240.14,0,-0.01,16.56,2.218338889
2017-04-13T15:13:04Z,51.055108,-114.12048,-19.38,301.25,-63.19,1103,29.74,8.07,-2250,2250.01,-16.48,-4050,4049.8,0,0,16.56,2.220580556
2017-04-13T15:13:05Z,51.055108,-114.12044,-19.31,293.75,-54.19,1103.12,15.13,10.07,-450,450.11,7.18,6480,-6479.65,0,-0.02,16.62,2.223377778
2017-04-13T15:13:07Z,51.055108,-114.120273,-19.75,292.44,-52.75,1103,19.88,41.94,450,451.95,114.72,3240,6.61,0,0.09,16.69,2.235027778
2017-04-13T15:13:08Z,51.055112,-114.12015,-22,289,-39.5,1103.31,18.06,31.06,-1125,1125.43,-39.16,-5670,2424.52,0,-0.03,16.69,2.243655556
2017-04-13T15:13:09Z,51.055115,-114.120012,-20.81,292.88,-41.44,1102.81,21.39,34.83,1800,1800.34,13.58,10530,2429.67,0,0.02,16.75,2.253330556
2017-04-13T15:13:10Z,51.055118,-114.11986,-24.19,288.62,-36.44,1102.75,6.82,38.18,225,228.22,12.07,-5670,-5659.63,0,0.17,16.75,2.263936111
2017-04-13T15:13:11Z,51.055118,-114.119703,-23.44,290.69,-34.94,1102.44,13.07,39.42,1125,1125.69,4.43,3240,3230.9,0,0.04,16.81,2.274886111
2017-04-13T15:13:12Z,51.055117,-114.11954,-4.62,302.31,-38.81,1102.19,33.57,41.1,900,900.94,6.07,-810,-809.11,0,0.05,16.88,2.286302778
2017-04-13T15:13:13Z,51.055117,-114.119377,-12.19,296.06,-33.12,1102.12,33.46,41.1,225,228.72,-0.02,-2430,-2419.98,0,0.18,16.88,2.297719444
2017-04-13T15:13:15Z,51.055117,-114.119075,-11.62,298.69,-31.75,1101.25,33.24,75.9,3150,3150.91,125.3,10530,10519.89,0,0.02,16.94,2.318802778
2017-04-13T15:13:16Z,51.055118,-114.11894,-5.38,294.31,-29,1101.06,27.48,33.97,675,675.85,-150.94,-8910,-8910.22,0,0.05,17,2.328238889
2017-04-13T15:13:17Z,51.05512,-114.118815,-80.25,284.44,4.88,1100.56,-33.43,31.46,1800,1800.27,-9.05,4050,4047.91,0,0.02,17,2.336977778
2017-04-13T15:13:18Z,51.05512,-114.118707,-123.62,302.81,14.81,1100.06,-75.35,27.25,1800,1800.21,-15.13,0,-0.25,0,0.02,17.06,2.344547222
2017-04-13T15:13:19Z,51.055113,-114.118627,61.94,318.44,-7.56,1100.94,64.6,20.3,-3150,3150.07,-25.02,-17820,4859.49,0,-0.01,17.12,2.350186111
2017-04-13T15:13:20Z,51.055092,-114.118567,86.62,303,-22.81,1100.25,27.67,17.41,2475,2475.06,-10.41,20250,-2430.02,0,0.01,17.12,2.355022222
2017-04-13T15:13:21Z,51.05507,-114.11851,90.44,263.44,-25.44,1100.06,17.96,16.69,675,675.21,-2.6,-6480,-6479.48,0,0.02,17.19,2.359658333
2017-04-13T15:13:23Z,51.055073,-114.118412,84.31,217.88,-27.5,1099.94,5.66,24.78,450,450.68,29.11,-810,-808.29,0,0.06,17.25,2.366541667
2017-04-13T15:13:24Z,51.0551,-114.118395,88.62,176.88,-22,1099.94,8.15,11.46,0,11.46,-47.93,-1620,-1581.19,0,0,17.31,2.369725
2017-04-13T15:13:25Z,51.055125,-114.118417,75.19,155,-8.81,1099.62,33.11,11.4,1125,1125.06,-0.24,4050,4008.94,0,0.01,17.38,2.372891667
2017-04-13T15:13:26Z,51.055135,-114.118472,35.69,147,-8.31,1099.5,-110.56,14.4,450,450.23,10.82,-2430,-2429.38,0,0.03,17.5,2.376891667
2017-04-13T15:13:27Z,51.055128,-114.118547,-16.88,162.5,-34.88,1099.75,-78.36,19.06,-900,900.2,16.76,-4860,1619.9,0,-0.02,17.5,2.382186111
2017-04-13T15:13:28Z,51.055115,-114.118637,-11.5,182.06,-35.31,1099.56,-75.41,23.26,675,675.4,15.14,5670,-809.28,0,0.03,17.56,2.388647222
2017-04-13T15:13:29Z,51.055107,-114.118742,-10.5,178.38,9.94,1100.69,-93.84,26.63,-4050,4050.09,12.11,-17010,12148.87,0,-0.01,17.5,2.396044444
2017-04-13T15:13:31Z,51.055095,-114.118993,-51.31,176.5,17.56,1100.25,-98.84,63.49,1575,1576.28,132.71,20250,-8905.71,0,0.04,17.56,2.413680556
2017-04-13T15:13:32Z,51.055093,-114.119132,-6.56,184.69,33.94,1100.56,-95.83,34.81,-1125,1125.54,-103.24,-9720,-1622.67,0,-0.03,17.62,2.42335
2017-04-13T15:13:33Z,51.055093,-114.119267,-6,194.5,49.81,1100.25,-94.28,33.97,1125,1125.51,-3.04,8100,-0.09,0,0.03,17.62,2.432786111
2017-04-13T15:13:34Z,51.055093,-114.119398,-1.94,196.25,44.12,1100.5,-97.4,33.13,-900,900.61,-3.02,-7290,-809.65,0,-0.04,17.69,2.441988889
2017-04-13T15:13:35Z,51.055093,-114.119525,-3,196.44,40.06,1101.25,-96.51,31.87,-2700,2700.19,-4.53,-6480,6478.48,0,-0.01,17.69,2.450841667
2017-04-13T15:13:36Z,51.055093,-114.11965,-3.06,196.88,40.38,1101.31,-101.58,31.45,-225,227.19,-1.51,8910,-8902.8,0,-0.14,17.69,2.459577778
2017-04-13T15:13:37Z,51.055095,-114.119767,-3.06,194.69,35.31,1101.25,-100.86,29.36,225,226.91,-7.51,1620,-1.01,0,0.13,17.69,2.467733333
2017-04-13T15:13:39Z,51.055093,-114.119968,1.31,193.06,35,1101.5,-100.93,50.75,-900,901.43,76.97,-4050,2428.28,0,-0.06,17.75,2.481830556
2017-04-13T15:13:40Z,51.055102,-114.120053,-2.5,194.62,35.62,1100.56,-97.24,21.65,3375,3375.07,-104.76,15390,8905.1,0,0.01,17.81,2.487844444
2017-04-13T15:13:41Z,51.05511,-114.120118,-4.5,199.62,33.69,1101,-89.81,16.69,-1575,1575.09,-17.83,-17820,-6479.93,0,-0.01,17.75,2.492480556
2017-04-13T15:13:42Z,51.055117,-114.120157,-85.75,209.12,3.62,1100.81,-73.04,10.01,675,675.07,-24.06,8100,-3240.05,0,0.01,17.81,2.495261111
2017-04-13T15:13:43Z,51.055128,-114.120193,-87.06,236.38,-0.44,1101.12,-45.31,10.34,-1125,1125.05,1.2,-6480,1619.9,0,-0.01,17.88,2.498133333
2017-04-13T15:13:44Z,51.055153,-114.120242,-88.94,240.06,4.06,1101.56,-42.11,15.75,-1575,1575.08,19.47,-1620,1620.11,0,-0.01,17.88,2.502508333
2017-04-13T15:13:45Z,51.055192,-114.120285,-83.5,252.25,6.62,1101.88,-39.84,18.82,-1125,1125.16,11.07,1620,-1619.72,0,-0.02,17.94,2.507736111
2017-04-13T15:13:46Z,51.055253,-114.120315,-33.06,247.81,12.31,1102,-39.49,25.81,-450,450.74,25.15,2430,-2427.9,0,-0.06,17.94,2.514905556
2017-04-13T15:13:48Z,51.055407,-114.120312,6.81,252,6.69,1101.94,-15.33,61.38,225,233.22,128.06,2430,-783.06,0,0.27,17.94,2.531955556
2017-04-13T15:13:49Z,51.05549,-114.120312,10.56,253.62,14.94,1102.38,-9.27,33.36,-1575,1575.35,-100.88,-6480,4831.67,0,-0.02,17.94,2.541222222
2017-04-13T15:13:50Z,51.055578,-114.120315,-4.38,248.19,11.62,1101.81,-30.7,35.37,2025,2025.31,7.23,12960,1619.84,0,0.02,18,2.551047222
2017-04-13T15:13:51Z,51.055668,-114.120313,-3.31,245.69,10.88,1101.44,-30.62,36.03,1350,1350.48,2.38,-2430,-2429.38,0,0.03,18,2.561055556
2017-04-13T15:13:52Z,51.05575,-114.120308,-4.06,245.44,5.06,1101.12,-32.33,32.72,1125,1125.48,-11.93,-810,-810.02,0,0.03,18,2.570144444
2017-04-13T15:13:53Z,51.055815,-114.120303,38.94,243.81,7.56,1101.25,-9.88,26.05,-450,450.75,-24.01,-5670,-2429,0,-0.06,18.06,2.577380556
2017-04-13T15:13:54Z,51.055863,-114.120298,6.75,244.75,8.06,1101.75,-17.12,19.38,-1800,1800.1,-23.99,-4860,4857.66,0,-0.01,18,2.582763889
2017-04-13T15:13:56Z,51.05596,-114.1203,-45.94,254.25,-3.69,1102.44,-35.29,38.7,-2475,2475.3,69.53,-2430,2430.71,0,-0.02,18.06,2.593513889
2017-04-13T15:13:57Z,51.056027,-114.120288,-1,244.75,3.75,1101.81,-23.35,26.85,2250,2250.16,-42.65,17010,-810.51,0,0.01,18.12,2.600972222
2017-04-13T15:13:58Z,51.056102,-114.12028,3.88,240.12,3.94,1102.06,-31.52,30.09,-900,900.5,11.68,-11340,-4858.77,0,-0.03,18.12,2.609330556
2017-04-13T15:13:59Z,51.056187,-114.120272,-1.5,241.56,3.12,1102.94,-26.57,34.09,-3150,3150.18,14.39,-8100,8098.85,0,-0.01,18.12,2.6188
2017-04-13T15:14:00Z,51.056278,-114.120267,0.62,238.81,1.62,1102.5,-30.26,36.72,1575,1575.43,9.45,17010,-5669.12,0,0.02,18.19,2.629
2017-04-13T15:14:01Z,51.056375,-114.120263,-2.25,245.5,10.62,1102.31,-25.03,38.7,675,676.11,7.15,-3240,-3237.55,0,0.06,18.19,2.63975
2017-04-13T15:14:02Z,51.056472,-114.12026,2.06,253.75,26.94,1102.19,-14.42,38.7,450,451.66,0.01,-810,-808.01,0,0.09,18.19,2.6505
2017-04-13T15:14:04Z,51.056653,-114.120255,3.94,253.94,24.56,1100.38,-18.43,72.73,6525,6525.41,122.49,21870,21865.48,0,0.01,18.25,2.670702778
2017-04-13T15:14:05Z,51.05672,-114.120252,4,251.31,19.75,1099.75,-25.87,26.7,2250,2250.16,-165.72,-15390,-15390.89,0,0.01,18.31,2.678119444
2017-04-13T15:14:06Z,51.056758,-114.120252,27.31,241.81,16.06,1100.75,-14.2,15.34,-3600,3600.03,-40.86,-21060,4859.55,0,0,18.25,2.682380556
2017-04-13T15:14:07Z,51.056787,-114.120257,78.12,190.69,-12.25,1100.94,46.41,11.41,-675,675.1,-14.16,10530,-10529.77,0,-0.02,18.31,2.68555
2017-04-13T15:14:08Z,51.056823,-114.120278,64.31,172.5,-2.19,1100.25,55.84,15.66,2475,2475.05,15.28,11340,6479.83,0,0.01,18.38,2.6899
2017-04-13T15:14:09Z,51.056855,-114.120348,58.06,161.44,-0.69,1100.69,-154.72,21.7,-1575,1575.15,21.75,-14580,-3239.64,0,-0.01,18.44,2.695927778
2017-04-13T15:14:10Z,51.056878,-114.120442,38.88,165.69,13,1101.25,-132.45,25.27,-2025,2025.16,12.86,-1620,1620.03,0,-0.01,18.5,2.702947222
2017-04-13T15:14:12Z,51.056885,-114.12073,7.81,177.06,27.31,1101.94,-110.73,72.59,-2475,2476.06,170.36,-1620,1623.26,0,-0.03,18.56,2.723111111
2017-04-13T15:14:13Z,51.056887,-114.120893,-12.56,176.19,26.56,1101.81,-108.38,41.1,450,451.87,-113.38,10530,-7287.09,0,0.09,18.56,2.734527778
2017-04-13T15:14:14Z,51.056888,-114.121062,-10.44,181.56,35.31,1101.81,-103.99,42.36,0,42.36,4.53,-1620,-1474.25,0,0,18.56,2.746294444
2017-04-13T15:14:15Z,51.056888,-114.121237,-8.62,181.94,3.5,1102.38,-95.34,44.03,-2025,2025.48,6.02,-7290,7139.23,0,-0.02,18.56,2.758525
2017-04-13T15:14:16Z,51.056887,-114.121412,-8.12,175.56,-26.31,1103.06,-86.34,44.03,-2475,2475.39,0.02,-1620,1619.69,0,-0.02,18.62,2.770755556
2017-04-13T15:14:17Z,51.05689,-114.121585,-18.31,156.06,-41.56,1102.44,-97.38,43.63,2250,2250.42,-1.46,17010,-809.89,0,0.02,18.69,2.782875
2017-04-13T15:14:18Z,51.05689,-114.121755,-24,152.06,-40.69,1102.69,-100.85,42.77,-900,901.02,-3.09,-11340,-4857.87,0,-0.05,18.69,2.794755556
2017-04-13T15:14:20Z,51.056885,-114.122088,-26.38,150.88,-39.69,1102.94,-105.24,83.89,-900,903.9,148.03,0,10.39,0,-0.09,18.69,2.818058333
2017-04-13T15:14:21Z,51.056883,-114.122255,-25.12,152.88,-38.19,1103.5,-110.5,41.94,-2025,2025.43,-151.02,-4050,4037.52,0,-0.02,18.75,2.829708333
2017-04-13T15:14:22Z,51.056885,-114.122423,-24.5,152,-36.69,1104.06,-112.15,42.36,-2025,2025.44,1.51,0,0.03,0,-0.02,18.75,2.841475
2017-04-13T15:14:23Z,51.056888,-114.12259,-28.44,147.88,-38.25,1104.69,-111.64,41.95,-2250,2250.39,-1.46,-810,809.81,0,-0.02,18.75,2.853127778
2017-04-13T15:14:24Z,51.05689,-114.122758,-16.69,161.38,-33.5,1104.06,-103.03,42.36,2250,2250.4,1.45,16200,0.03,0,0.02,18.81,2.864894444
2017-04-13T15:14:25Z,51.056893,-114.122925,-18.44,166.62,-35.56,1104.25,-93.79,41.95,-675,676.3,-1.45,-10530,-5666.75,0,-0.06,18.81,2.876547222
2017-04-13T15:14:26Z,51.056895,-114.123092,-18,169.25,-31.12,1103.56,-91.25,41.94,2475,2475.36,-0.06,11340,6476.59,0,0.02,18.88,2.888197222
2017-04-13T15:14:28Z,51.056897,-114.123432,-5.62,175.62,-33.44,1104.06,-84.58,85.54,-1800,1802.03,156.98,-15390,-2423.97,0,-0.05,18.88,2.911958333
2017-04-13T15:14:29Z,51.05689,-114.123605,12.38,198.06,-46.56,1103.69,-45.81,43.69,1350,1350.71,-150.68,11340,-1624.77,0,0.03,18.94,2.924094444
2017-04-13T15:14:30Z,51.056885,-114.12378,10.62,203.31,-47.5,1103.44,-39.05,44.08,900,901.08,1.38,-1620,-1618.66,0,0.05,18.94,2.936338889
2017-04-13T15:14:31Z,51.056883,-114.123958,12.75,204.06,-46.56,1103.69,-40.84,44.87,-900,901.12,2.87,-6480,0.14,0,-0.05,18.94,2.948802778
2017-04-13T15:14:32Z,51.05688,-114.124138,12.12,201.94,-44.19,1103.94,-46.68,45.31,-900,901.14,1.56,0,0.08,0,-0.05,19,2.961388889
2017-04-13T15:14:33Z,51.056882,-114.124322,12.44,201.38,-45.38,1103.56,-48.56,46.13,1350,1350.79,2.96,8100,1618.73,0,0.03,19,2.974202778
2017-04-13T15:14:34Z,51.056885,-114.124503,-14.25,183.81,-35.88,1103.62,-70.73,45.73,-225,229.6,-1.45,-5670,-4036.28,0,-0.2,19.06,2.986905556
2017-04-13T15:14:35Z,51.056883,-114.124683,-23.38,172.94,-20.94,1103.94,-90.35,45.29,-1125,1125.91,-1.57,-3240,3226.72,0,-0.04,19.06,2.999486111
2017-04-13T15:14:37Z,51.056887,-114.124998,-47.56,166.38,-14.38,1103.06,-97.76,79.26,3150,3151,122.29,15390,7290.31,0,0.03,19.12,3.021502778
2017-04-13T15:14:38Z,51.056892,-114.125108,-48.75,176,-8.12,1103.25,-98.65,27.75,-675,675.57,-185.46,-13770,-8911.54,0,-0.04,19.12,3.029211111
2017-04-13T15:14:39Z,51.056902,-114.125182,-69.44,186.5,-4.62,1102.69,-83.3,18.88,2025,2025.09,-31.92,9720,4858.26,0,0.01,19.12,3.034455556
2017-04-13T15:14:40Z,51.056908,-114.12522,-86.62,214.75,-6.19,1102.69,-41.97,10.01,0,10.01,-31.93,-7290,-7254.28,0,0,19.19,3.037236111
2017-04-13T15:14:41Z,51.05692,-114.125253,-83.81,216.94,-0.12,1102.69,-50.19,9.59,0,9.59,-1.5,0,-1.5,0,0,19.25,3.0399
2017-04-13T15:14:42Z,51.056938,-114.125292,-80.81,228.12,0.5,1102.56,-42.88,12.12,450,450.16,9.1,1620,1586.05,0,0.03,19.25,3.043266667
2017-04-13T15:14:43Z,51.05698,-114.125328,-72.69,236.44,0,1103,-40.82,19.06,-1575,1575.12,24.97,-7290,4049.83,0,-0.01,19.25,3.048561111
2017-04-13T15:14:45Z,51.057107,-114.125347,-41.81,219.5,-13.81,1102.38,-55.3,50.91,2250,2250.58,114.67,13770,2431.66,0,0.02,19.31,3.062702778
2017-04-13T15:14:46Z,51.057187,-114.125353,-32.31,216.25,-15.75,1102.69,-54.19,32.07,-1125,1125.46,-67.84,-12150,-4050.43,0,-0.03,19.31,3.071611111
2017-04-13T15:14:47Z,51.057272,-114.125362,-30.56,215.62,-11.44,1101.69,-55.14,34.09,3600,3600.16,7.28,17010,8908.94,0,0.01,19.31,3.081080556
2017-04-13T15:14:48Z,51.05736,-114.12537,-28.12,217.38,-13.38,1101.5,-54.34,35.42,675,675.93,4.79,-10530,-10527.24,0,0.05,19.38,3.090919444
2017-04-13T15:14:49Z,51.057448,-114.125375,-4.44,233.44,-10.19,1101.12,-34.3,35.38,1350,1350.46,-0.14,2430,2428.33,0,0.03,19.38,3.100747222
2017-04-13T15:14:50Z,51.057532,-114.125375,-1.12,235,-4.69,1101.38,-34.3,33.36,-900,900.62,-7.28,-8100,-1619.44,0,-0.04,19.38,3.110013889
2017-04-13T15:14:51Z,51.057602,-114.12537,1.38,234.44,-6.62,1100.81,-32.92,28.05,2025,2025.19,-19.12,10530,4048.47,0,0.01,19.38,3.117805556
2017-04-13T15:14:53Z,51.057675,-114.125368,27.69,232.19,-1.75,1100.38,-19.13,29.36,1575,1575.27,4.72,-1620,-1619.71,0,0.02,19.44,3.125961111
2017-04-13T15:14:54Z,51.05769,-114.125372,45.81,215.75,1.38,1100.69,-12.46,6.06,-1125,1125.02,-83.88,-9720,-1620.93,0,-0.01,19.44,3.127644444
2017-04-13T15:14:55Z,51.057713,-114.125393,38.12,199,1.44,1100.75,-37.28,10.82,-225,225.26,17.14,3240,-3239.12,0,-0.05,19.5,3.13065
2017-04-13T15:14:56Z,51.05774,-114.125447,28.19,180.31,3.62,1100.75,-70.09,17.15,0,17.15,22.78,810,-749.21,0,0,19.5,3.135413889
2017-04-13T15:14:57Z,51.057762,-114.125533,19.31,171.88,3.38,1101.19,-95.4,23.46,-1575,1575.17,22.75,-5670,5608.91,0,-0.01,19.56,3.141930556
2017-04-13T15:14:58Z,51.057772,-114.125647,-2.31,177.69,21.06,1101,-99.88,28.79,675,675.61,19.18,8100,-3238.42,0,0.04,19.62,3.149927778
2017-04-13T15:14:59Z,51.057775,-114.125785,-2.38,178.94,20.75,1100.25,-101.95,34.83,2700,2700.22,21.73,7290,7288.6,0,0.01,19.69,3.159602778
2017-04-13T15:15:01Z,51.057778,-114.126105,3.44,178.25,20,1100.56,-106.43,80.52,-1125,1127.88,164.49,-13770,-5660.45,0,-0.07,19.75,3.181969444
2017-04-13T15:15:02Z,51.057778,-114.126272,4.75,181.69,27.62,1100.81,-102.57,41.93,-900,900.98,-138.91,810,-816.85,0,-0.05,19.75,3.193616667
2017-04-13T15:15:03Z,51.05778,-114.126437,4.31,182.88,26.69,1100.38,-103.2,41.52,1575,1575.55,-1.49,8910,2428.46,0,0.03,19.75,3.20515
2017-04-13T15:15:04Z,51.057782,-114.126597,-15.31,164.69,26.88,1099.94,-108.74,40.26,1575,1575.51,-4.53,0,-0.12,0,0.03,19.81,3.216333333
2017-04-13T15:15:05Z,51.057782,-114.126752,-69,170.5,72.56,1100.5,-107.48,39,-2025,2025.38,-4.55,-12960,1619.5,0,-0.02,19.75,3.227166667
2017-04-13T15:15:06Z,51.057782,-114.126897,-45.88,185.12,69.31,1099.81,-113.55,36.48,2475,2475.27,-9.05,16200,1619.62,0,0.01,19.81,3.2373
2017-04-13T15:15:07Z,51.057782,-114.127032,-43.31,180.62,71.75,1099.56,-121.02,33.96,900,900.64,-9.06,-5670,-5668.66,0,0.04,19.81,3.246733333
2017-04-13T15:15:09Z,51.057768,-114.127255,-36.06,168.94,76,1098.75,-123.96,56.44,2925,2925.54,80.92,7290,7289.65,0,0.02,19.88,3.262411111
2017-04-13T15:15:10Z,51.05776,-114.127327,-73.44,211.56,68.56,1099,-119.8,18.33,-900,900.19,-137.19,-13770,-7291.29,0,-0.02,19.88,3.267502778
2017-04-13T15:15:11Z,51.057757,-114.127378,-97.81,223.44,73.81,1098.5,-118.85,13.06,1800,1800.05,-18.98,9720,3239.5,0,0.01,19.94,3.271130556
2017-04-13T15:15:12Z,51.057757,-114.127402,177.25,211.5,87.12,1098.38,-131.36,5.88,450,450.04,-25.86,-4860,-4860.03,0,0.01,19.94,3.272763889
2017-04-13T15:15:13Z,51.057753,-114.127408,-176.12,214.19,84.88,1098.38,-130.38,2.16,0,2.16,-13.39,-1620,-1612.36,0,0,20,3.273363889
2017-04-13T15:15:14Z,51.057753,-114.127408,-4.88,210.12,84.31,1098.81,-121.86,0,-1575,1575,-7.78,-5670,5662.22,0,0,20,3.273363889