time,latitude,longitude,pitch,yaw,roll,altitude,heading,gvelocity,vvelocity,fvelocity,xaccel,yaccel,zaccel,aoa,gratio,temperature,distance
(yyyy-MM-ddTHH:mm:ssZ),(deg),(deg),(deg),(deg),(deg),(m),(deg),(km/hr),(km/hr),(km/hr),(m/s2),(m/s2),(m/s2),(deg),(ratio),(celsius),(km)
2017-04-13T15:15:30Z,51.057758,-114.127412,56.44,11.75,83.12,1097.94,-55.55,1.08,0,1.08,3.89,5670,-5666.11,0,0,20.25,0
2017-04-13T15:15:31Z,51.057753,-114.127407,-174.56,21.69,69.94,1098.44,-58.47,2.37,-1800,1800,4.63,-6480,6476.12,0,0,20.19,0.000658333
2017-04-13T15:15:32Z,51.057753,-114.127433,-174.19,31.75,65.94,1098.56,-59.06,6.71,-450,450.05,15.65,4860,-4859.83,0,-0.01,20.12,0.002522222
2017-04-13T15:15:33Z,51.057757,-114.127485,-168.06,37.5,73.19,1098.75,-59.75,13.07,-675,675.13,22.87,-810,810.27,0,-0.02,20.06,0.006152778
2017-04-13T15:15:34Z,51.05776,-114.12755,-179.5,33.88,87.69,1099,-58.88,16.4,-900,900.15,12.01,-810,810.08,0,-0.02,20.06,0.010708333
2017-04-13T15:15:36Z,51.057772,-114.127643,-179.56,33.81,87.06,1098.81,-58.73,23.94,675,675.42,27.13,5670,-809.01,0,0.04,20,0.017358333
2017-04-13T15:15:37Z,51.057775,-114.12767,-148.19,37.44,69.88,1099.31,-58.63,6.84,-1800,1800.01,-61.55,-8910,4048.52,0,0,19.94,0.019258333
2017-04-13T15:15:38Z,51.057765,-114.127718,-141.88,10.12,67.06,1099.06,-47.14,12.8,900,900.09,21.45,9720,-3239.72,0,0.01,19.94,0.022813889
2017-04-13T15:15:39Z,51.05774,-114.127775,-158.06,325.25,64.81,1099.75,-31.83,17.42,-2475,2475.06,16.61,-12150,5669.89,0,-0.01,19.88,0.027652778
2017-04-13T15:15:40Z,51.057688,-114.127812,-153.19,304.69,69.19,1100.19,-21.77,22.64,-1575,1575.16,18.82,3240,-3239.63,0,-0.01,19.81,0.033941667
2017-04-13T15:15:41Z,51.057623,-114.12782,-163.75,299,71,1099.94,-21.77,26.1,900,900.38,12.46,8910,-2429.22,0,0.03,19.81,0.041191667
2017-04-13T15:15:42Z,51.057543,-114.127822,-164.81,298.94,71.12,1100.56,-22.07,32.03,-2250,2250.23,21.32,-11340,4859.46,0,-0.01,19.69,0.050088889
2017-04-13T15:15:44Z,51.057357,-114.127832,-165.56,297.94,73.25,1101.25,-22.88,74.76,-2475,2476.13,153.85,-810,813.24,0,-0.03,19.62,0.070855556
2017-04-13T15:15:45Z,51.057252,-114.127835,-166.12,296.38,77.69,1101.88,-23.48,42.04,-2250,2250.39,-117.8,810,-812.65,0,-0.02,19.56,0.082533333
2017-04-13T15:15:46Z,51.057145,-114.127843,-169,295.31,79.88,1101.69,-24.06,42.75,675,676.35,2.55,10530,-5666.55,0,0.06,19.56,0.094408333
2017-04-13T15:15:47Z,51.057045,-114.12785,-165.19,295.94,79.19,1102,-22.09,40.06,-1125,1125.71,-9.67,-6480,1617.7,0,-0.04,19.56,0.105536111
2017-04-13T15:15:48Z,51.056942,-114.127852,-165.25,294.69,78.88,1103.12,-21.61,41.36,-4050,4050.21,4.69,-10530,10528.19,0,-0.01,19.44,0.117025
2017-04-13T15:15:49Z,51.056837,-114.127852,-166.06,294.81,78.88,1103.62,-21.1,42.03,-1800,1800.49,2.39,8100,-8098.99,0,-0.02,19.38,0.1287
2017-04-13T15:15:50Z,51.05673,-114.127848,-168.25,294.62,80,1103.5,-22.22,42.7,450,452.02,2.43,8100,-4854.49,0,0.09,19.38,0.140561111
2017-04-13T15:15:52Z,51.056518,-114.127852,-170.12,293.94,82.19,1103.94,-22.33,84.73,-1575,1577.28,151.3,-7290,4050.92,0,-0.05,19.31,0.164097222
2017-04-13T15:15:53Z,51.056418,-114.127853,-179.81,293.06,83.69,1103.88,-22.88,40.03,225,228.53,-160.92,6480,-4855.48,0,0.18,19.25,0.175216667
2017-04-13T15:15:54Z,51.056322,-114.127857,178.5,291.5,87.94,1104.06,-23.51,38.7,-675,676.11,-4.78,-3240,1611.27,0,-0.06,19.25,0.185966667
2017-04-13T15:15:55Z,51.056233,-114.127858,1.81,291.25,86.75,1103.12,-24.05,35.36,3375,3375.19,-12.03,14580,9716.68,0,0.01,19.19,0.195788889
2017-04-13T15:15:56Z,51.056158,-114.127862,-7.31,291.62,81.38,1103.06,-26.61,30.03,225,227,-19.18,-11340,-11333.48,0,0.13,19.12,0.204130556
2017-04-13T15:15:57Z,51.056105,-114.127862,-89.56,282.62,76.5,1103.19,-14.56,21.35,-450,450.51,-31.27,-2430,804.64,0,-0.05,19.06,0.210061111
2017-04-13T15:15:58Z,51.056063,-114.127845,-119,256.94,69.31,1103.56,-2.17,17.2,-1350,1350.11,-14.94,-3240,3238.57,0,-0.01,19.06,0.214838889
2017-04-13T15:16:00Z,51.056005,-114.127702,-124.88,231.94,70.62,1103.56,2.38,42.96,0,42.96,92.75,4860,-4705.74,0,0,19,0.226772222
2017-04-13T15:16:01Z,51.055998,-114.127583,-146.94,213.56,73.75,1104.12,6.97,29.89,-2025,2025.22,-47.05,-7290,7136.14,0,-0.01,18.94,0.235075
2017-04-13T15:16:02Z,51.055997,-114.127443,-154.12,209.19,75.31,1104.62,6.97,35.23,-1800,1800.34,19.22,810,-809.55,0,-0.02,18.88,0.244861111
2017-04-13T15:16:03Z,51.056,-114.127285,-155.56,208.56,75,1104.44,5.64,39.86,675,676.18,16.66,8910,-4047.01,0,0.06,18.88,0.255933333
2017-04-13T15:16:04Z,51.055998,-114.127125,-162.88,205.06,79.06,1104.75,5.77,40.26,-1125,1125.72,1.45,-6480,1618.36,0,-0.04,18.81,0.267116667
2017-04-13T15:16:05Z,51.056,-114.126955,-167.31,203.88,80.19,1104.75,6.14,42.78,0,42.78,9.06,4050,-3898.59,0,0,18.81,0.279
2017-04-13T15:16:06Z,51.056002,-114.126778,-172,203.12,81.12,1104.75,5.66,44.46,0,44.46,6.04,0,6.04,0,0,18.75,0.29135
2017-04-13T15:16:08Z,51.056002,-114.126417,-179.5,202.25,84.62,1104.44,5.58,91,1125,1128.67,167.54,4050,3903.18,0,0.08,18.69,0.316627778
2017-04-13T15:16:09Z,51.056,-114.126242,-179.25,202.38,84.44,1104.38,8.7,44.04,225,229.27,-169.05,-3240,-3237.86,0,0.2,18.62,0.328861111
2017-04-13T15:16:10Z,51.055998,-114.126073,-179.81,201.75,87.31,1103.69,9.44,42.36,2475,2475.36,-6.03,8100,8085.94,0,0.02,18.62,0.340627778
2017-04-13T15:16:11Z,51.055997,-114.12592,179.12,201.56,88.12,1103.44,7.06,38.58,900,900.83,-13.6,-5670,-5668.33,0,0.04,18.56,0.351344444
2017-04-13T15:16:12Z,51.055997,-114.125783,2.75,200,85.25,1102.56,7.75,34.38,3150,3150.19,-15.11,8100,8097.7,0,0.01,18.56,0.360894444
2017-04-13T15:16:13Z,51.055995,-114.125677,1.38,201.38,86.25,1102.06,7.24,26.84,1800,1800.2,-27.15,-4860,-4859.96,0,0.01,18.5,0.36835
2017-04-13T15:16:14Z,51.055992,-114.125603,-178.19,202.94,87.94,1102.38,5.24,18.5,-1125,1125.15,-30.04,-10530,-2430.17,0,-0.02,18.44,0.373488889
2017-04-13T15:16:16Z,51.055995,-114.125517,-136.69,201.5,74.69,1102.38,2.76,21.85,0,21.85,12.05,4050,-3971.9,0,0,18.44,0.379558333
2017-04-13T15:16:17Z,51.056015,-114.125467,-140.44,171.44,70.31,1102.31,-1.99,14.91,225,225.49,-24.96,810,733.13,0,0.07,18.38,0.3837
2017-04-13T15:16:18Z,51.056055,-114.125423,-127.81,145.88,70.56,1102.56,-11.73,19.37,-900,900.21,16.06,-4050,2428.97,0,-0.02,18.38,0.389080556
2017-04-13T15:16:19Z,51.056113,-114.125398,-141.25,130.5,73.94,1102.5,-14.51,24.18,225,226.3,17.3,4050,-2426.09,0,0.11,18.31,0.395797222
2017-04-13T15:16:20Z,51.056185,-114.125387,-150.44,124.88,75.38,1103.12,-14.99,28.84,-2250,2250.18,16.77,-8910,7286,0,-0.01,18.25,0.403808333
2017-04-13T15:16:21Z,51.05627,-114.12538,-152,123.62,76.12,1103.38,-18.29,34.07,-900,900.64,18.82,4860,-4858.35,0,-0.04,18.25,0.413272222
2017-04-13T15:16:22Z,51.056365,-114.125373,-149.94,122.69,76.5,1103.12,-18.75,38.06,900,900.8,14.39,6480,0.58,0,0.04,18.19,0.423844444
2017-04-13T15:16:24Z,51.056577,-114.125367,-177.12,118.12,84.88,1103.31,-18.92,84.74,-675,680.3,168.05,-5670,-793.82,0,-0.13,18.19,0.447383333
2017-04-13T15:16:25Z,51.056672,-114.125362,0.94,115.75,85.62,1102.75,-16.07,38.05,2025,2025.36,-168.11,9720,4842.21,0,0.02,18.12,0.457952778
2017-04-13T15:16:26Z,51.05675,-114.125352,70.81,117.81,81.94,1102.31,-90.05,31.46,1575,1575.31,-23.72,-1620,-1620.16,0,0.02,18.12,0.466691667
2017-04-13T15:16:27Z,51.056807,-114.125327,123.75,137.62,75.88,1102.19,-86.72,23.54,450,450.62,-28.51,-4050,-4048.92,0,0.05,18.06,0.473230556
2017-04-13T15:16:28Z,51.05685,-114.125272,148.25,167.94,71.06,1103.06,-48.5,22.19,-3150,3150.08,-4.86,-12960,9718.07,0,-0.01,18,0.479394444
2017-04-13T15:16:29Z,51.05688,-114.12518,160.12,191.5,69.44,1102.94,34.25,26,450,450.75,13.73,12960,-9717.58,0,0.06,18,0.486616667
2017-04-13T15:16:30Z,51.056892,-114.12506,173.19,201.69,71.69,1102.94,47.29,30.55,0,30.55,16.38,-1620,-1512.72,0,0,18,0.495102778
2017-04-13T15:16:31Z,51.056895,-114.124917,178.81,204.75,72.38,1103.06,14.52,36.09,-450,451.44,19.93,-1620,1515.21,0,-0.08,17.94,0.505127778
2017-04-13T15:16:33Z,51.0569,-114.124577,-179.56,205.44,73.5,1103.19,20.43,85.57,-450,458.06,178.13,0,23.83,0,-0.19,17.88,0.528897222
2017-04-13T15:16:34Z,51.056902,-114.124385,-176.31,206.94,76.62,1102.69,23.08,48.23,1800,1800.65,-134.42,8100,4833.3,0,0.03,17.88,0.542294444
2017-04-13T15:16:35Z,51.056903,-114.124188,-174.62,207.69,78.88,1102.88,30.26,49.48,-675,676.81,4.53,-8910,-4045.8,0,-0.07,17.88,0.556038889
2017-04-13T15:16:36Z,51.0569,-114.12399,-173.62,207.69,80.12,1102.69,25.74,49.92,675,676.84,1.56,4860,0.11,0,0.07,17.81,0.569905556
2017-04-13T15:16:37Z,51.0569,-114.123793,-176.38,207.25,81.62,1102.25,33.29,49.48,1575,1575.78,-1.57,3240,3236.16,0,0.03,17.81,0.58365
2017-04-13T15:16:38Z,51.0569,-114.123603,-172.44,207.38,81.56,1102.75,33.29,47.8,-1800,1800.63,-6.04,-12150,809.49,0,-0.03,17.75,0.596927778
2017-04-13T15:16:39Z,51.0569,-114.123422,-168.75,208.25,82.12,1102.25,17.1,45.71,1800,1800.58,-7.54,12960,-0.2,0,0.03,17.69,0.609625
2017-04-13T15:16:41Z,51.056902,-114.123065,-175.38,207.69,81.75,1102.38,36.66,89.74,-450,458.86,158.51,-8100,-4830.19,0,-0.2,17.69,0.634552778
2017-04-13T15:16:42Z,51.0569,-114.122888,178.12,206.69,82,1102.31,49.09,44.45,225,229.35,-163.03,2430,-826.24,0,0.2,17.69,0.6469
2017-04-13T15:16:43Z,51.0569,-114.122715,-178.06,207.75,81.88,1101.94,41.63,43.61,1350,1350.7,-3.04,4050,4036.88,0,0.03,17.62,0.659013889
2017-04-13T15:16:44Z,51.056898,-114.12254,179.75,209.12,81.38,1101.75,55.92,44.03,675,676.43,1.53,-2430,-2427.37,0,0.07,17.62,0.671244444
2017-04-13T15:16:45Z,51.056893,-114.122362,-145.06,211.62,80.56,1102.06,39.23,44.91,-1125,1125.9,3.16,-6480,1618.06,0,-0.04,17.56,0.683719444
2017-04-13T15:16:46Z,51.056893,-114.122178,-148.06,207.44,81.25,1102.06,45.44,46.12,0,46.12,4.37,4050,-3887.18,0,0,17.5,0.696530556
2017-04-13T15:16:47Z,51.056902,-114.121988,-165.44,207.25,82.19,1101.44,43.53,47.92,2250,2250.51,6.46,8100,7935.79,0,0.02,17.5,0.709841667
2017-04-13T15:16:49Z,51.056912,-114.121608,-167.06,209.75,82.56,1101.5,37.57,95.69,-225,244.5,171.98,-8910,-7221.63,0,-0.43,17.44,0.736422222
2017-04-13T15:16:50Z,51.056908,-114.121423,-178.31,209.94,83.19,1101.69,68.2,46.56,-675,676.6,-176.86,-1620,1555.56,0,-0.07,17.44,0.749355556
2017-04-13T15:16:51Z,51.056907,-114.121238,-179.12,209,83.12,1101,73.39,46.55,2475,2475.44,-0.05,11340,6475.8,0,0.02,17.44,0.762286111
2017-04-13T15:16:52Z,51.056905,-114.121053,-173.56,209.56,82.69,1101.25,76.76,46.55,-900,901.2,0,-12150,-5667.25,0,-0.05,17.38,0.775216667
2017-04-13T15:16:53Z,51.056902,-114.12087,-176.19,209.5,82.81,1101.25,80.87,46.15,0,46.15,-1.46,3240,-3078.21,0,0,17.31,0.788036111
2017-04-13T15:16:54Z,51.056898,-114.120683,-169.94,210.69,82.69,1101.12,57.53,46.98,450,452.45,3.02,1620,1462.68,0,0.1,17.31,0.801086111
2017-04-13T15:16:55Z,51.056893,-114.120502,-173.56,209.44,82.69,1101.69,60.55,45.75,-2025,2025.52,-4.44,-8910,5663.05,0,-0.02,17.25,0.813794444
2017-04-13T15:16:57Z,51.05689,-114.12014,-157.5,210.19,82,1101.62,85.1,91,225,242.71,162.91,8100,-6418.12,0,0.4,17.25,0.839072222
2017-04-13T15:16:58Z,51.056892,-114.119962,-158.81,208.44,81.94,1101.5,135,44.87,450,452.23,-166.07,810,754.29,0,0.1,17.19,0.851536111
2017-04-13T15:16:59Z,51.056893,-114.11978,-167.31,206.81,82.56,1101.75,113.5,45.71,-900,901.16,3.02,-4860,1616.14,0,-0.05,17.12,0.864233333
2017-04-13T15:17:00Z,51.056898,-114.119598,-144.62,207.69,82.75,1101.25,104.04,45.75,1800,1800.58,0.14,9720,3237.92,0,0.03,17.12,0.876941667
2017-04-13T15:17:01Z,51.056907,-114.119412,-111.56,205.12,80.88,1101.88,118.86,47.08,-2250,2250.49,4.8,-14580,1619.68,0,-0.02,17.06,0.890019444
2017-04-13T15:17:02Z,51.05693,-114.119232,-104.25,199.38,78.19,1101.62,154.09,46.24,900,901.19,-3.03,11340,-4857.5,0,0.05,17.06,0.902863889
2017-04-13T15:17:03Z,51.056962,-114.119065,-175.25,187.5,84.94,1101.44,159.97,43.81,675,676.42,-8.76,-810,-809.16,0,0.06,17,0.915033333
2017-04-13T15:17:05Z,51.057052,-114.118762,0.69,183.19,89.12,1100.62,154.51,84.39,2925,2926.22,146.11,8100,8099.27,0,0.03,17,0.938475
2017-04-13T15:17:06Z,51.057085,-114.11864,2.38,185.38,86.62,1100.88,163.65,33.39,-900,900.62,-183.6,-13770,-7292.15,0,-0.04,16.94,0.94775
2017-04-13T15:17:07Z,51.05711,-114.118542,4.06,187.31,85.81,1100.94,137.77,26.69,-225,226.58,-24.14,2430,-2426.55,0,-0.12,16.94,0.955163889
2017-04-13T15:17:08Z,51.057125,-114.118463,3.88,190.62,84.56,1100.38,135,20.6,2025,2025.1,-21.91,8100,6474.7,0,0.01,16.94,0.960886111
2017-04-13T15:17:09Z,51.057135,-114.118413,2.62,192.81,85.06,1100.25,130.5,13.2,450,450.19,-26.64,-5670,-5669.68,0,0.03,16.94,0.964552778
2017-04-13T15:17:10Z,51.057137,-114.118397,-178.81,196.62,85,1101.31,149.35,4.25,-3825,3825,-32.21,-15390,12149.31,0,0,16.81,0.965733333
2017-04-13T15:17:11Z,51.057137,-114.118393,-178.31,197.19,83.5,1100.88,152.04,0.84,1575,1575,-12.3,19440,-8100.01,0,0,16.81,0.965966667
2017-04-13T15:17:13Z,51.057135,-114.118393,-164.56,197.38,83.06,1101.25,149.35,0.68,-1350,1350,-0.55,-10530,-810,0,0,16.81,0.966155556
2017-04-13T15:17:14Z,51.057133,-114.118393,-164.56,197.38,83.06,1101,159.04,0.68,900,900,0,8100,-1620,0,0,16.81,0.966344444
2017-04-13T15:17:15Z,51.057133,-114.118392,-164.56,197.38,83.06,1101.19,155.42,0,-675,675,-2.46,-5670,-810,0,0,16.75,0.966344444
2017-04-13T15:17:16Z,51.057133,-114.118392,-164.56,197.38,83.06,1101.25,139.87,0,-225,225,0,1620,-1620,0,0,16.75,0.966344444
2017-04-13T15:17:17Z,51.057132,-114.118392,-164.56,197.38,83.06,1101.69,148.24,0.59,-1575,1575,2.13,-4860,4860,0,0,16.69,0.966508333
2017-04-13T15:17:18Z,51.057132,-114.118392,-164.56,197.38,83.06,1101.31,151.39,0,1350,1350,-2.13,10530,-810,0,0,16.69,0.966508333
2017-04-13T15:17:19Z,51.05713,-114.118393,-164.56,197.38,83.06,1101.31,150.5,0.84,0,0.84,3.01,-4860,-4856.99,0,0,16.62,0.966741667
2017-04-13T15:17:21Z,51.057127,-114.118393,-164.56,197.38,83.06,1101.31,148.47,1.37,0,1.37,1.91,0,1.91,0,0,16.62,0.967122222
2017-04-13T15:17:22Z,51.057125,-114.118393,-164.56,197.38,83.06,1101.19,148.44,0.68,450,450,-2.46,1620,1615.08,0,0,16.56,0.967311111
2017-04-13T15:17:23Z,51.057125,-114.118395,-164.56,197.38,83.06,1101.25,157.75,0.48,-225,225,-0.72,-2430,-810,0,0,16.5,0.967444444
2017-04-13T15:17:24Z,51.057125,-114.118395,-164.56,197.38,83.06,1101.12,144.61,0,450,450,-1.74,2430,810,0,0,16.5,0.967444444
2017-04-13T15:17:25Z,51.057125,-114.118397,-164.56,197.38,83.06,1100.69,149.35,0.48,1575,1575,1.74,4050,4050,0,0,16.5,0.967577778
2017-04-13T15:17:26Z,51.057123,-114.118397,-164.56,197.38,83.06,1100.69,-88.55,0.68,0,0.68,0.72,-5670,-5667.54,0,0,16.44,0.967766667
2017-04-13T15:17:27Z,51.057123,-114.118397,-164.56,197.38,83.06,1100.5,-88.9,0,675,675,-2.46,2430,2427.54,0,0,16.44,0.967766667
2017-04-13T15:17:29Z,51.057122,-114.118397,-164.56,197.38,83.06,1100.69,-88.7,0.59,-675,675,2.13,-4860,0,0,0,16.38,0.967930556
2017-04-13T15:17:30Z,51.057122,-114.118397,-164.56,197.38,83.06,1100.31,-88.7,0,1350,1350,-2.13,7290,2430,0,0,16.38,0.967930556
2017-04-13T15:17:31Z,51.057122,-114.118395,-164.56,197.38,83.06,1100.5,-89.12,0,-675,675,0,-7290,-2430,0,0,16.31,0.967930556
2017-04-13T15:17:32Z,51.057123,-114.118395,-164.56,197.38,83.06,1100.5,-88.89,0.59,0,0.59,2.13,2430,-2427.87,0,0,16.31,0.968094444
2017-04-13T15:17:33Z,51.057122,-114.118395,-164.56,197.38,83.06,1100.19,-88.54,0.59,1125,1125,0,4050,4047.87,0,0,16.31,0.968258333
2017-04-13T15:17:34Z,51.057122,-114.118395,-164.56,197.38,83.06,1099.88,-88.72,0,1125,1125,-2.13,0,0,0,0,16.31,0.968258333
2017-04-13T15:17:35Z,51.057123,-114.118395,-164.56,197.38,83.06,1100,-88.18,0.59,-450,450,2.13,-5670,-2430,0,0,16.25,0.968422222
2017-04-13T15:17:37Z,51.057123,-114.118395,-164.56,197.38,83.06,1100.12,-88.54,0,-450,450,-2.13,0,0,0,0,16.19,0.968422222
2017-04-13T15:17:38Z,51.057123,-114.118395,-164.56,197.38,83.06,1099.81,-88.9,0,1125,1125,0,5670,2430,0,0,16.19,0.968422222
2017-04-13T15:17:39Z,51.057123,-114.118395,-164.56,197.38,83.06,1100.25,-88.89,0,-1575,1575,0,-9720,1620,0,0,16.12,0.968422222
2017-04-13T15:17:40Z,51.057122,-114.118393,-164.56,197.38,83.06,1100.06,-88.71,0.68,675,675,2.46,8100,-3240,0,0,16.12,0.968611111
2017-04-13T15:17:41Z,51.057122,-114.118393,-164.56,197.38,83.06,1100,-88.9,0,225,225,-2.46,-1620,-1620,0,0,16.12,0.968611111
2017-04-13T15:17:42Z,51.057122,-114.118393,-164.56,197.38,83.06,1099.75,-88.71,0,900,900,0,2430,2430,0,0,16.06,0.968611111
2017-04-13T15:17:43Z,51.057122,-114.118392,-164.56,197.38,83.06,1100.25,-88.89,0,-1800,1800,0,-9720,3240,0,0,16.06,0.968611111
2017-04-13T15:17:44Z,51.057123,-114.118392,-164.56,197.38,83.06,1100.19,-88.2,0.59,225,225,2.13,7290,-5670,0,0,16,0.968775
2017-04-13T15:17:46Z,51.057122,-114.118392,-164.56,197.38,83.06,1100.25,-89.25,0.59,-225,225,0,-1620,0,0,0,16,0.968938889
2017-04-13T15:17:47Z,51.057122,-114.118388,-164,201.56,71.75,1100.25,-87.71,0.76,0,0.76,0.62,810,-807.25,0,0,16,0.96915
2017-04-13T15:17:48Z,51.057125,-114.118362,-162.38,206.88,68.12,1100.81,-85.9,6.84,-2025,2025.01,21.86,-7290,7287.29,0,0,15.94,0.97105
2017-04-13T15:17:49Z,51.057132,-114.118298,-162.75,209.06,67.81,1101.25,-85.49,16.16,-1575,1575.08,33.56,1620,-1619.74,0,-0.01,15.94,0.975538889
2017-04-13T15:17:50Z,51.05714,-114.118198,-161.94,210.25,69.81,1101.44,-86.36,25.38,-675,675.48,33.21,3240,-3238.58,0,-0.04,15.88,0.982588889
2017-04-13T15:17:51Z,51.057148,-114.118075,-162.75,210.81,72.69,1102.19,-87.75,31.21,-2700,2700.18,20.98,-7290,7288.93,0,-0.01,15.88,0.991258333
2017-04-13T15:17:52Z,51.057157,-114.117932,-158.81,212.75,75.12,1101.62,-90.06,36.22,2025,2025.32,18.02,17010,-2429.48,0,0.02,15.81,1.001319444
2017-04-13T15:17:54Z,51.05717,-114.117637,-156.56,213.94,76.31,1101,-86.09,74.41,2250,2251.23,137.51,810,813.26,0,0.03,15.88,1.021988889
2017-04-13T15:17:55Z,51.057173,-114.117492,-147.62,213.69,79.88,1101.75,-88.61,36.51,-2700,2700.25,-136.45,-17820,1616.46,0,-0.01,15.81,1.032130556
2017-04-13T15:17:56Z,51.057177,-114.117343,-147.81,213,80.06,1101.44,-86.79,37.34,1125,1125.62,3.01,13770,-5668.66,0,0.03,15.81,1.042502778
2017-04-13T15:17:57Z,51.05718,-114.117193,-148.44,212.62,80.06,1101.06,-87.41,37.76,1350,1350.53,1.51,810,809.67,0,0.03,15.75,1.052991667
2017-04-13T15:17:58Z,51.057183,-114.117042,-143,212.38,81.69,1101.69,-88.23,38.18,-2250,2250.32,1.51,-12960,3239.27,0,-0.02,15.75,1.063597222
2017-04-13T15:17:59Z,51.057187,-114.116898,-145.19,212,81.75,1102,-86.55,36.09,-1125,1125.58,-7.55,4050,-4049.08,0,-0.03,15.69,1.073622222
2017-04-13T15:18:00Z,51.05719,-114.116755,-145.81,211.75,81.56,1102.06,-88.5,36.09,-225,227.88,0,3240,-3231.73,0,-0.16,15.69,1.083647222
2017-04-13T15:18:01Z,51.057195,-114.116612,-147.81,211.44,81.75,1102.5,-87.97,36.12,-1575,1575.41,0.11,-4860,4851.14,0,-0.02,15.69,1.093680556
2017-04-13T15:18:03Z,51.057203,-114.116313,-154.31,210.88,81.31,1102.75,-87.84,75.13,-900,903.13,140.46,2430,-2420.22,0,-0.08,15.62,1.11455
2017-04-13T15:18:04Z,51.057207,-114.116153,-157.88,211.25,80.81,1102.69,-87.53,40.28,225,228.58,-125.48,4050,-2428.39,0,0.18,15.62,1.125738889
2017-04-13T15:18:05Z,51.057208,-114.115987,-160.94,211.12,80.56,1102.81,-87.36,41.94,-450,451.95,5.97,-2430,804.14,0,-0.09,15.62,1.137388889
2017-04-13T15:18:06Z,51.057208,-114.115813,-159.69,211.69,80.94,1103.31,-89.75,43.61,-1800,1800.53,6.02,-4860,4854.88,0,-0.02,15.56,1.149502778
2017-04-13T15:18:07Z,51.057208,-114.115633,-159.94,211.62,81.69,1103.69,-88.76,45.29,-1350,1350.76,6.04,1620,-1619.17,0,-0.03,15.5,1.162083333
2017-04-13T15:18:08Z,51.057205,-114.115453,-154.56,212.19,81.81,1103.75,-89.01,45.31,-225,229.52,0.07,4050,-4036.48,0,-0.2,15.5,1.174669444
2017-04-13T15:18:09Z,51.057202,-114.115272,-150.5,212.75,81.75,1103.56,-89.02,45.73,675,676.55,1.51,3240,1609.31,0,0.07,15.5,1.187372222
2017-04-13T15:18:11Z,51.0572,-114.114892,-149.44,212.62,81.88,1103.88,-88.49,95.61,-1125,1129.06,179.58,-6480,1629.03,0,-0.08,15.44,1.213930556
2017-04-13T15:18:12Z,51.0572,-114.114697,-148.94,212.06,81.88,1103.5,-90.25,49.06,1350,1350.89,-167.57,8910,798.61,0,0.04,15.44,1.227558333
2017-04-13T15:18:13Z,51.057202,-114.114498,-151.69,211.88,81.62,1103.62,-87.43,49.9,-450,452.76,3.03,-6480,-3233.28,0,-0.11,15.44,1.241419444
2017-04-13T15:18:14Z,51.057203,-114.114295,-152.81,212.56,81.62,1103.75,-90,51.16,-450,452.9,4.53,0,0.51,0,-0.11,15.38,1.255630556
2017-04-13T15:18:15Z,51.057202,-114.114087,-176.56,212.12,83.38,1103.88,-88.29,52.42,-450,453.04,4.53,0,0.52,0,-0.12,15.38,1.270191667
2017-04-13T15:18:16Z,51.057203,-114.11388,-176.31,212.25,83.62,1103.44,-89.81,52,1575,1575.86,-1.51,7290,4042.14,0,0.03,15.38,1.284636111
2017-04-13T15:18:18Z,51.057198,-114.113475,-176.19,212.44,83.56,1103.06,-87.63,101.92,1350,1353.84,179.7,-810,-799.26,0,0.08,15.31,1.312947222
2017-04-13T15:18:19Z,51.057198,-114.11328,-176.56,212.12,83.81,1102.81,-88.74,49.06,900,901.34,-190.27,-1620,-1629.02,0,0.05,15.31,1.326575
2017-04-13T15:18:20Z,51.057198,-114.113085,-176.75,211.75,83.31,1102,-90.06,49.06,2925,2925.41,0,7290,7286.67,0,0.02,15.31,1.340202778
2017-04-13T15:18:21Z,51.057198,-114.112888,-148.81,212.12,82.88,1102.5,-89.94,49.48,-1800,1800.68,1.51,-17010,-4049.03,0,-0.03,15.25,1.353947222
2017-04-13T15:18:22Z,51.0572,-114.112687,-151.44,212,82.75,1102.88,-89.62,50.74,-1350,1350.95,4.54,1620,-1619.02,0,-0.04,15.25,1.368041667
2017-04-13T15:18:23Z,51.057202,-114.112485,-176.81,212.06,83.12,1103,-88.8,50.74,-450,452.85,0,3240,-3233.17,0,-0.11,15.19,1.382136111
2017-04-13T15:18:24Z,51.057202,-114.112282,-176.81,212,83.69,1102.56,-87.38,51.16,1575,1575.83,1.49,7290,4042.72,0,0.03,15.19,1.396347222
2017-04-13T15:18:26Z,51.057203,-114.111878,-149.44,212.25,82.88,1102.94,-88.4,101.48,-1350,1353.81,181.16,-10530,-799.28,0,-0.08,15.12,1.424536111
2017-04-13T15:18:27Z,51.057205,-114.111673,-149.69,212.19,82.94,1102.69,-87.1,51.58,900,901.48,-179.63,8100,-1628.39,0,0.06,15.12,1.438863889
2017-04-13T15:18:28Z,51.057205,-114.111465,-176.44,212.12,83.31,1102.38,-87.73,52.42,1125,1126.22,3,810,809.08,0,0.05,15.12,1.453425
2017-04-13T15:18:29Z,51.057205,-114.111258,-176.25,212.12,83.31,1102.19,-87.15,52,675,677,-1.51,-1620,-1617.19,0,0.08,15.12,1.467869444
2017-04-13T15:18:30Z,51.057205,-114.111052,-176.31,212.06,83.19,1102.25,-87.84,52,-225,230.93,0,-3240,-1605.85,0,-0.23,15.06,1.482313889
2017-04-13T15:18:31Z,51.057205,-114.110843,-151.12,212,82.88,1101.75,-87.88,52.42,1800,1800.76,1.51,7290,5651.4,0,0.03,15.06,1.496875
2017-04-13T15:18:32Z,51.057205,-114.110633,-176.94,211.56,83.38,1102.38,-87.44,52.84,-2250,2250.62,1.51,-14580,1619.49,0,-0.02,15.06,1.511552778
2017-04-13T15:18:33Z,51.057205,-114.110423,-149.75,212.12,83,1102,-88.1,52.84,1350,1351.03,0,12960,-3238.51,0,0.04,15,1.526230556
2017-04-13T15:18:35Z,51.057205,-114.109997,-149.44,212.25,82.69,1102.38,-86.86,107.35,-1350,1354.26,196.24,-9720,11.62,0,-0.08,15,1.55605
2017-04-13T15:18:36Z,51.057205,-114.109782,-149.56,212.5,82.31,1102.38,-86.62,54.09,0,54.09,-191.72,4860,-4680.61,0,0,14.94,1.571075
2017-04-13T15:18:37Z,51.057203,-114.109562,-148,212.62,82.5,1102.19,-87.6,55.36,675,677.27,4.54,2430,2243.42,0,0.08,14.94,1.586452778
2017-04-13T15:18:38Z,51.057203,-114.10934,-176.5,211.81,83.69,1102.25,-86.27,55.77,-225,231.81,1.49,-3240,-1603.65,0,-0.25,14.94,1.601944444
2017-04-13T15:18:39Z,51.057205,-114.109125,-176.38,211.69,84.38,1101.44,-87.56,54.1,2925,2925.5,-6.02,11340,9697.29,0,0.02,14.88,1.616972222
2017-04-13T15:18:40Z,51.057207,-114.108913,-176.81,211.25,84.75,1101.44,-87.56,53.26,0,53.26,-3.02,-10530,-10340.07,0,0,14.88,1.631766667
2017-04-13T15:18:41Z,51.057208,-114.108708,-177,211.38,85.19,1101.31,-87.28,51.58,450,452.95,-6.04,1620,1438.88,0,0.11,14.88,1.646094444
2017-04-13T15:18:43Z,51.05721,-114.10832,-177.19,211.88,85.38,1101.19,-88.52,97.7,450,460.48,166.05,0,27.14,0,0.22,14.81,1.673233333
2017-04-13T15:18:44Z,51.05721,-114.108133,-177.5,211.19,85.62,1100.31,-88.68,46.97,3150,3150.35,-182.66,9720,9683.52,0,0.01,14.81,1.686280556
2017-04-13T15:18:45Z,51.05721,-114.107953,-176.69,211.12,85.44,1100.06,-86.81,45.29,900,901.14,-6.04,-8100,-8097.16,0,0.05,14.81,1.698861111
2017-04-13T15:18:46Z,51.057212,-114.10778,-176.75,210.69,85,1099.94,-88.93,43.62,450,452.11,-6.02,-1620,-1616.51,0,0.1,14.81,1.710977778
2017-04-13T15:18:47Z,51.057213,-114.10761,-176.62,211.56,84.12,1100.25,-87.08,42.77,-1125,1125.81,-3.03,-5670,2425.33,0,-0.04,14.75,1.722858333
2017-04-13T15:18:48Z,51.057215,-114.107437,-176.94,211.44,84.5,1100.44,-89.13,43.61,-675,676.41,3.02,1620,-1617.86,0,-0.06,14.75,1.734972222
2017-04-13T15:18:49Z,51.057215,-114.10726,-176.56,211.12,84.38,1099.94,-87.95,44.45,1800,1800.55,3,8910,4046.91,0,0.02,14.69,1.747319444
2017-04-13T15:18:51Z,51.057215,-114.106918,-176.88,211.69,84.38,1100.25,-86.96,85.96,-1125,1128.28,149.45,-10530,-2420.17,0,-0.08,14.69,1.771197222
2017-04-13T15:18:52Z,51.057213,-114.106748,-177.94,211.44,84.62,1100.25,-87.31,42.77,0,42.77,-155.47,4050,-3907.82,0,0,14.69,1.783077778
2017-04-13T15:18:53Z,51.057212,-114.10658,-177,213,84.38,1099.88,-86.87,42.36,1350,1350.66,-1.51,4860,4708.4,0,0.03,14.62,1.794844444
2017-04-13T15:18:54Z,51.057208,-114.106418,-100.88,213.19,82,1100.31,-91.14,40.7,-1575,1575.53,-5.98,-10530,809.5,0,-0.03,14.62,1.80615
2017-04-13T15:18:55Z,51.057213,-114.106267,-83,205,82.81,1099.81,-91.39,38.21,1800,1800.41,-8.95,12150,809.57,0,0.02,14.62,1.816763889
2017-04-13T15:18:56Z,51.057227,-114.106132,-40.44,195.25,82.25,1099.56,-94.25,34.38,900,900.66,-13.79,-3240,-3239.1,0,0.04,14.62,1.826313889
2017-04-13T15:18:57Z,51.057247,-114.106022,0.81,187.12,82.12,1099.31,-94.14,28.81,900,900.46,-20.06,0,-0.7,0,0.03,14.62,1.834316667
2017-04-13T15:18:59Z,51.057273,-114.105912,1.44,184.88,84.5,1099.88,-93.02,29.66,-2025,2025.22,3.08,-10530,4049.12,0,-0.01,14.56,1.842555556
2017-04-13T15:19:00Z,51.057278,-114.105897,-179.81,186.5,88.31,1099.44,-86.91,4.28,1575,1575.01,-91.37,12960,-1620.76,0,0,14.56,1.843744444
2017-04-13T15:19:01Z,51.05728,-114.10589,-179.06,187.25,85.94,1099.5,-92.43,1.81,-225,225.01,-8.91,-6480,-4859.99,0,-0.01,14.56,1.844247222
2017-04-13T15:19:02Z,51.057282,-114.105885,-178.25,188.19,83.19,1099.25,-87.88,1.37,900,900,-1.59,4050,2429.98,0,0,14.56,1.844627778
2017-04-13T15:19:03Z,51.057282,-114.10588,-162.75,192.94,71.5,1099.94,-88.29,1.28,-2475,2475,-0.32,-12150,5670,0,0,14.5,1.844983333
2017-04-13T15:19:04Z,51.057288,-114.105862,-162.31,192.38,71.5,1100,-88.67,5.34,-225,225.06,14.61,8100,-8099.77,0,-0.02,14.5,1.846466667
2017-04-13T15:19:05Z,51.0573,-114.105818,-160.81,190.69,72.25,1100.06,-88.69,11.86,-225,225.31,23.47,0,0.9,0,-0.05,14.44,1.849761111
2017-04-13T15:19:06Z,51.05732,-114.10575,-163.19,187.75,72.75,1100.31,-89.62,18.97,-900,900.2,25.59,-2430,2429.6,0,-0.02,14.44,1.855030556
2017-04-13T15:19:08Z,51.05738,-114.105565,-159.31,187.81,74.44,1100.38,-89.44,52.38,-225,231.02,120.27,2430,-2409.06,0,-0.23,14.44,1.869580556
2017-04-13T15:19:09Z,51.057418,-114.10546,-159.69,190.06,73.69,1100.5,-94.13,30.55,-450,451.04,-78.57,-810,792.07,0,-0.07,14.38,1.878066667
2017-04-13T15:19:10Z,51.057455,-114.105345,-161.19,191.56,75.31,1100.5,-93.32,32.44,0,32.44,6.81,1620,-1506.93,0,0,14.38,1.887077778
2017-04-13T15:19:11Z,51.057493,-114.105217,-171.69,191.88,76.69,1100.5,-95.49,35.75,0,35.75,11.89,0,11.89,0,0,14.38,1.897008333
2017-04-13T15:19:12Z,51.057532,-114.105072,166.75,192.5,80.19,1100.38,-92.72,39.58,450,451.74,13.78,1620,1497.56,0,0.09,14.38,1.908002778
2017-04-13T15:19:13Z,51.057565,-114.104917,151.62,198.12,80.56,1100.56,-89.59,41.22,-675,676.26,5.91,-4050,808.27,0,-0.06,14.31,1.919452778
2017-04-13T15:19:14Z,51.057587,-114.104758,162.62,205.31,80.62,1100.56,-87.09,40.77,0,40.77,-1.61,2430,-2287.75,0,0,14.31,1.930777778
2017-04-13T15:19:16Z,51.057608,-114.104433,177.62,209.5,84.88,1100.25,-90.97,82.23,1125,1128,149.24,4050,3914.03,0,0.07,14.31,1.953619444
2017-04-13T15:19:17Z,51.05761,-114.10428,2.81,209.44,83.56,1099.94,-93.75,38.58,1125,1125.66,-157.12,0,-8.42,0,0.03,14.31,1.964336111
2017-04-13T15:19:18Z,51.057608,-114.104157,24.62,210.12,79.81,1099.31,-95.04,31.04,2250,2250.21,-27.16,4050,4048.39,0,0.01,14.25,1.972958333
2017-04-13T15:19:19Z,51.057607,-114.104075,-179.31,214.62,89.25,1099.19,-87.09,20.56,450,450.47,-37.73,-6480,-6479.08,0,0.05,14.25,1.978669444
2017-04-13T15:19:20Z,51.057603,-114.104007,-177.81,216,86.06,1098.69,-82.32,17.24,1800,1800.08,-11.92,4860,4858.61,0,0.01,14.25,1.983458333
2017-04-13T15:19:21Z,51.0576,-114.103942,-156.56,220.62,75.81,1099.31,-88.77,16.41,-2250,2250.06,-3.01,-14580,1619.92,0,-0.01,14.25,1.988016667
2017-04-13T15:19:22Z,51.057598,-114.103868,-155,220,73.56,1099.31,-90.45,18.46,0,18.46,7.39,8100,-8033.76,0,0,14.25,1.993144444
2017-04-13T15:19:24Z,51.057597,-114.103652,-156.75,219.38,73.5,1100,-83.87,54.52,-2475,2475.6,129.8,-8910,8845.7,0,-0.02,14.19,2.008288889
2017-04-13T15:19:25Z,51.057597,-114.103508,-156.81,218.88,74.81,1100.06,-85.34,36.06,-225,227.87,-66.43,8100,-8091.82,0,-0.16,14.19,2.018305556
2017-04-13T15:19:26Z,51.057595,-114.103345,-156.62,217.75,77.19,1099.75,-88.8,41.1,1125,1125.75,18.13,4860,3232.36,0,0.04,14.19,2.029722222
2017-04-13T15:19:27Z,51.057597,-114.103167,-156.12,216.5,80.69,1099.81,-86.89,44.87,-225,229.43,13.59,-4860,-3226.75,0,-0.2,14.19,2.042186111
2017-04-13T15:19:28Z,51.057597,-114.102985,-176.75,215.88,83.44,1099.88,-86.43,45.71,-225,229.6,3.01,0,0.59,0,-0.2,14.12,2.054883333
2017-04-13T15:19:29Z,51.057597,-114.102807,-177.56,215,84.62,1099.62,-87.31,44.87,900,901.12,-3.03,4050,2417.48,0,0.05,14.12,2.067347222
2017-04-13T15:19:31Z,51.0576,-114.102463,-177.94,214.62,84.5,1099.25,-87.43,86.39,1350,1352.76,149.48,1620,1625.92,0,0.06,14.12,2.091344444
2017-04-13T15:19:32Z,51.057602,-114.102288,-156.38,215.75,82.25,1100.12,-86.86,44.03,-3150,3150.31,-152.48,-16200,6471.17,0,-0.01,14.06,2.103575
2017-04-13T15:19:33Z,51.057603,-114.102107,-155.75,216.44,81.06,1100.44,-85.91,45.71,-1125,1125.93,6.04,7290,-7287.77,0,-0.04,14.06,2.116272222
2017-04-13T15:19:34Z,51.057605,-114.101917,-157.12,216.44,80.88,1100.06,-87.82,47.81,1350,1350.85,7.55,8910,809.7,0,0.04,14.06,2.129552778
2017-04-13T15:19:35Z,51.057607,-114.101718,-157.69,216.5,81.56,1100.06,-86.46,49.9,0,49.9,7.55,-4860,-4683.39,0,0,14.06,2.143413889
2017-04-13T15:19:36Z,51.057608,-114.101515,-158.56,216.81,81.94,1099.62,-86.59,51.16,1575,1575.83,4.52,5670,5493.33,0,0.03,14,2.157625
2017-04-13T15:19:37Z,51.057602,-114.101312,-153.69,217.06,82.31,1099.44,-86.56,51.23,675,676.94,0.23,-3240,-3236,0,0.08,14,2.171855556
2017-04-13T15:19:39Z,51.057597,-114.100892,-153.81,216.81,82.69,1099.75,-84.79,105.69,-1125,1129.95,196.06,-6480,1630.85,0,-0.09,14,2.201213889
2017-04-13T15:19:40Z,51.057595,-114.10068,-155.75,216.69,83.12,1099.75,-85.86,53.26,0,53.26,-188.75,4050,-3876.1,0,0,14,2.216008333
2017-04-13T15:19:41Z,51.057593,-114.100467,-177,216.94,83.19,1099.56,-85.74,53.68,675,677.13,1.51,2430,2245.94,0,0.08,14,2.230919444
2017-04-13T15:19:42Z,51.057593,-114.10025,-176.75,217,83.25,1099.38,-85.01,54.51,675,677.2,3,0,0.24,0,0.08,13.94,2.246061111
2017-04-13T15:19:43Z,51.057593,-114.100033,-177.25,216.44,84.12,1099.31,-85.94,54.51,225,231.51,0,-1620,-1604.48,0,0.24,13.94,2.261202778
2017-04-13T15:19:44Z,51.057593,-114.099818,-177.5,216.12,84.44,1099.94,-85.27,54.09,-2250,2250.65,-1.51,-8910,7268.91,0,-0.02,13.88,2.276227778
2017-04-13T15:19:45Z,51.057593,-114.099607,-177.81,216.12,83.94,1099.12,-86.14,53.25,2925,2925.48,-3.02,18630,2429.4,0,0.02,13.94,2.291019444
2017-04-13T15:19:46Z,51.057593,-114.099395,-177.5,216.44,84.12,1099.75,-85.43,53.25,-2250,2250.63,0,-18630,-2429.48,0,-0.02,13.88,2.305811111
2017-04-13T15:19:48Z,51.057593,-114.09897,-177.12,216.88,83.81,1099.56,-86.67,106.93,675,683.42,193.22,10530,-5641.97,0,0.16,13.88,2.335513889
2017-04-13T15:19:49Z,51.057593,-114.09876,-177.56,216.44,84.12,1099.19,-86.91,52.83,1350,1351.03,-194.73,2430,2403.42,0,0.04,13.88,2.350188889
2017-04-13T15:19:50Z,51.057593,-114.098547,-177.75,216.88,84.25,1099.19,-85.16,53.67,0,53.67,3.02,-4860,-4670.5,0,0,13.88,2.365097222
2017-04-13T15:19:51Z,51.057593,-114.098335,-177.75,216.94,84.44,1099.19,-85.05,53.25,0,53.25,-1.51,0,-1.51,0,0,13.81,2.379888889
2017-04-13T15:19:52Z,51.057592,-114.098125,-177.88,216.81,84.88,1099.56,-86.31,52.84,-1350,1351.03,-1.5,-4860,4672.01,0,-0.04,13.81,2.394566667
2017-04-13T15:19:53Z,51.05759,-114.097918,-177.19,217.62,84.81,1099.31,-86.26,52,900,901.5,-3.02,8100,-1618.32,0,0.06,13.81,2.409011111
2017-04-13T15:19:55Z,51.057587,-114.097505,-177,217.69,84.38,1099.19,-85.11,104,450,461.86,187.2,-1620,-1582.7,0,0.23,13.81,2.4379
2017-04-13T15:19:56Z,51.057587,-114.097295,-152.44,218,82.94,1099.5,-85.66,52.84,-1125,1126.24,-184.19,-5670,2391.76,0,-0.05,13.75,2.452577778
2017-04-13T15:19:57Z,51.057588,-114.097078,-150.88,218.69,83,1099.56,-85.7,54.52,-225,231.51,6.06,3240,-3221.03,0,-0.24,13.75,2.467722222
2017-04-13T15:19:58Z,51.057587,-114.096858,-177.12,219.06,83.56,1099.56,-85.09,55.36,0,55.36,3.02,810,-634.16,0,0,13.75,2.4831
2017-04-13T15:19:59Z,51.057583,-114.096637,-178.12,219.75,84.69,1099.5,-92.1,55.79,225,231.81,1.55,810,635.25,0,0.25,13.75,2.498597222
2017-04-13T15:20:00Z,51.057578,-114.096417,-178.88,218.94,85.62,1099.31,-87.32,55.39,675,677.27,-1.44,1620,1603.64,0,0.08,13.69,2.513983333
2017-04-13T15:20:01Z,51.057572,-114.096202,-3.81,219.19,86.06,1099,-87.28,54.16,1125,1126.3,-4.42,1620,1616.52,0,0.05,13.69,2.529027778
2017-04-13T15:20:03Z,51.05757,-114.095808,-4.12,216.44,85.75,1098.38,-89.82,98.96,2250,2252.18,161.29,4050,4053.14,0,0.04,13.69,2.556516667
2017-04-13T15:20:04Z,51.057577,-114.095628,0.31,214.25,88.62,1097.94,-88.51,45.37,1575,1575.65,-192.94,-2430,-2435.48,0,0.03,13.69,2.569119444
2017-04-13T15:20:05Z,51.057578,-114.095465,59.88,214.75,82.62,1097.19,-87.14,41.1,2700,2700.31,-15.36,4050,4048.77,0,0.02,13.62,2.580536111
2017-04-13T15:20:06Z,51.057572,-114.095328,55.25,220.25,81.44,1096.62,-87.05,34.49,2025,2025.29,-23.8,-2430,-2430.07,0,0.02,13.62,2.590116667
2017-04-13T15:20:07Z,51.057562,-114.095223,30.69,227.31,80.94,1095.25,-85.31,26.72,4950,4950.07,-27.96,10530,10529.2,0,0.01,13.62,2.597538889
2017-04-13T15:20:08Z,51.057552,-114.095148,1.94,231.62,83.38,1094.56,-84.59,19.29,2475,2475.08,-26.76,-8910,-8909.99,0,0.01,13.62,2.602897222
2017-04-13T15:20:09Z,51.057543,-114.095103,0.56,233.5,85.5,1094.94,-84.01,11.8,-1350,1350.05,-26.97,-13770,-4050.08,0,-0.01,13.56,2.606175
2017-04-13T15:20:11Z,51.057533,-114.095075,-178.31,235.69,87.81,1094.56,-81.18,8.17,1350,1350.02,-13.08,9720,-0.1,0,0.01,13.62,2.608444444
2017-04-13T15:20:12Z,51.057533,-114.095073,-177.81,236.19,86.31,1094.81,-83.12,0,-900,900,-29.4,-8100,-1620.09,0,0,13.56,2.608444444
2017-04-13T15:20:13Z,51.057532,-114.095073,-177.75,236.25,86.12,1095.25,-83.66,0.68,-1575,1575,2.46,-2430,2430,0,0,13.56,2.608633333
2017-04-13T15:20:14Z,51.05753,-114.095072,-177.75,236.25,86.12,1094.94,-80.86,0.84,1125,1125,0.55,9720,-1620,0,0,13.56,2.608866667
2017-04-13T15:20:15Z,51.057528,-114.095072,-177.75,236.25,86.12,1094.94,-82.27,0.68,0,0.68,-0.55,-4050,-4047.54,0,0,13.5,2.609055556
2017-04-13T15:20:16Z,51.057527,-114.09507,-177.75,236.25,86.12,1094.56,-82.09,0.84,1350,1350,0.55,4860,4857.54,0,0,13.56,2.609288889
2017-04-13T15:20:18Z,51.057523,-114.09507,-177.75,236.25,86.12,1094.69,-82.71,1.32,-450,450,1.75,-6480,-3239.99,0,0,13.5,2.609655556
2017-04-13T15:20:19Z,51.057522,-114.09507,-177.75,236.25,86.12,1094.62,-83.22,0.68,225,225,-2.3,2430,-810,0,0,13.5,2.609844444
2017-04-13T15:20:20Z,51.05752,-114.09507,-177.75,236.25,86.12,1094.69,-83.7,0.68,-225,225,0,-1620,0,0,0,13.5,2.610033333
2017-04-13T15:20:21Z,51.057518,-114.09507,-177.75,236.25,86.12,1094.5,-81.73,0.68,675,675,0,3240,1620,0,0,13.5,2.610222222
2017-04-13T15:20:22Z,51.057517,-114.09507,-177.75,236.25,86.12,1095.12,-84.1,0.68,-2250,2250,0,-10530,5670,0,0,13.44,2.610411111
2017-04-13T15:20:23Z,51.057515,-114.09507,-177.75,236.25,86.12,1094.25,-82.09,0.68,3150,3150,0,19440,3240,0,0,13.5,2.6106
2017-04-13T15:20:24Z,51.057513,-114.09507,-177.75,236.25,86.12,1094.81,-83.22,0.59,-2025,2025,-0.33,-18630,-4050,0,0,13.44,2.610763889
2017-04-13T15:20:26Z,51.057512,-114.09507,-177.75,236.25,86.12,1094.81,-80.92,0.59,0,0.59,0,7290,-7287.87,0,0,13.44,2.610927778
2017-04-13T15:20:27Z,51.05751,-114.09507,-177.75,236.25,86.12,1094.5,-81.31,0.68,1125,1125,0.33,4050,4047.87,0,0,13.44,2.611116667
2017-04-13T15:20:28Z,51.057508,-114.09507,-177.75,236.25,86.12,1094.5,-86.77,0.68,0,0.68,0,-4050,-4047.54,0,0,13.38,2.611305556
2017-04-13T15:20:29Z,51.057508,-114.095068,-177.75,236.25,86.12,1094.94,-87.13,0.34,-1575,1575,-1.23,-5670,5667.54,0,0,13.38,2.6114
2017-04-13T15:20:30Z,51.057507,-114.095068,-177.75,236.25,86.12,1094.56,-86.23,0.68,1350,1350,1.23,10530,-810,0,0,13.38,2.611588889
2017-04-13T15:20:31Z,51.057507,-114.095068,-177.75,236.25,86.12,1094.56,-87.12,0,0,0,-2.46,-4860,-4860,0,0,13.38,2.611588889
2017-04-13T15:20:32Z,51.057505,-114.095068,-177.75,236.25,86.12,1094.19,-86.74,0.68,1350,1350,2.46,4860,4860,0,0,13.38,2.611777778
2017-04-13T15:20:34Z,51.057503,-114.095068,-177.56,236.44,85.69,1094.88,-86.07,0.76,-2475,2475,0.29,-13770,4050,0,0,13.31,2.611988889
2017-04-13T15:20:35Z,51.057503,-114.095065,-177.19,236.88,84.5,1095.25,-86.75,0.84,-1350,1350,0.26,4050,-4050,0,0,13.31,2.612222222
2017-04-13T15:20:36Z,51.057502,-114.095058,-177.5,236.56,85.44,1094.38,-87.31,1.81,3150,3150,3.5,16200,6480,0,0,13.31,2.612725
2017-04-13T15:20:37Z,51.0575,-114.095053,-177.69,236.31,86.19,1094.56,-86.75,1.45,-675,675,-1.29,-13770,-8910,0,0,13.31,2.613127778
2017-04-13T15:20:38Z,51.0575,-114.095052,-177.56,236.44,85.81,1094,-86.97,0.48,2025,2025,-3.48,9720,4859.99,0,0,13.31,2.613261111
2017-04-13T15:20:39Z,51.0575,-114.095052,-177.56,236.44,85.81,1094.44,-86.74,0,-1575,1575,-1.74,-12960,-1620,0,0,13.25,2.613261111
2017-04-13T15:20:40Z,51.0575,-114.095052,-177.56,236.44,85.81,1094.31,-86.97,0,450,450,0,7290,-4050,0,0,13.25,2.613261111
2017-04-13T15:20:41Z,51.0575,-114.095052,-177.56,236.44,85.81,1094.56,-86.08,0,-900,900,0,-4860,1620,0,0,13.25,2.613261111
2017-04-13T15:20:43Z,51.0575,-114.095048,-177.56,236.44,85.81,1094.31,-86.75,0.84,900,900,3.01,6480,0,0,0,13.25,2.613494444
2017-04-13T15:20:44Z,51.0575,-114.09505,-177.56,236.44,85.81,1094,-86.37,0.48,1125,1125,-1.27,810,810,0,0,13.25,2.613627778
2017-04-13T15:20:45Z,51.0575,-114.09505,-177.56,236.44,85.81,1094.12,-86.37,0,-450,450,-1.74,-5670,-2430,0,0,13.25,2.613627778
2017-04-13T15:20:46Z,51.0575,-114.095047,-177.56,236.44,85.81,1094.38,-86.53,0.84,-900,900,3.01,-1620,1620,0,0,13.19,2.613861111
2017-04-13T15:20:47Z,51.057502,-114.095045,-177.56,236.44,85.81,1094.31,-86.57,0.84,225,225,0,4050,-2430,0,0,13.19,2.614094444
2017-04-13T15:20:48Z,51.057502,-114.095045,-177.56,236.44,85.81,1094.25,-86.72,0,225,225,-3.01,0,-0.01,0,0,13.19,2.614094444
2017-04-13T15:20:49Z,51.057502,-114.095043,-177.56,236.44,85.81,1094.25,-86.37,0.48,0,0.48,1.74,-810,-808.26,0,0,13.19,2.614227778
2017-04-13T15:20:51Z,51.057502,-114.095042,-177.56,236.44,85.81,1093.88,-86.38,0.48,1350,1350,0,4860,4858.26,0,0,13.19,2.614361111
2017-04-13T15:20:52Z,51.057502,-114.09504,-177.56,236.44,85.81,1094.19,-86.98,0.48,-1125,1125,0,-8910,-810,0,0,13.12,2.614494444
2017-04-13T15:20:53Z,51.057502,-114.095038,-177.56,236.44,85.81,1094.06,-86.75,0.48,450,450,0,5670,-2430,0,0,13.12,2.614627778
2017-04-13T15:20:54Z,51.057502,-114.095038,-177.56,236.44,85.81,1094.25,-86.36,0,-675,675,-1.74,-4050,810,0,0,13.12,2.614627778
2017-04-13T15:20:55Z,51.057502,-114.095037,-177.56,236.44,85.81,1094.31,-86.22,0.48,-225,225,1.74,1620,-1620,0,0,13.12,2.614761111
2017-04-13T15:20:56Z,51.057502,-114.095037,-177.56,236.44,85.81,1094.25,-86.55,0,225,225,-1.74,1620,0,0,0,13.12,2.614761111
2017-04-13T15:20:57Z,51.057502,-114.095035,-177.56,236.44,85.81,1094.06,-86.57,0.48,675,675,1.74,1620,1620,0,0,13.12,2.614894444
2017-04-13T15:20:59Z,51.0575,-114.095033,-177.56,236.44,85.81,1094.44,-85.9,0.84,-1350,1350,1.27,-7290,2430,0,0,13.06,2.615127778
2017-04-13T15:21:00Z,51.0575,-114.095032,-177.56,236.44,85.81,1094.06,-86.75,0.48,1350,1350,-1.27,9720,0,0,0,13.06,2.615261111
2017-04-13T15:21:01Z,51.0575,-114.09503,-177.56,236.44,85.81,1093.94,-86.98,0.48,450,450,0,-3240,-3240,0,0,13.06,2.615394444
2017-04-13T15:21:02Z,51.0575,-114.095028,-177.56,236.44,85.81,1094.38,-85.67,0.48,-1575,1575,0,-7290,4050,0,0,13.06,2.615527778
2017-04-13T15:21:03Z,51.0575,-114.095028,-177.56,236.44,85.81,1094.06,-86.56,0,1125,1125,-1.74,9720,-1620,0,0,13.06,2.615527778
2017-04-13T15:21:04Z,51.0575,-114.095027,-177.56,236.44,85.81,1094.31,-86.38,0.48,-900,900,1.74,-7290,-810,0,0,13.06,2.615661111
2017-04-13T15:21:05Z,51.057498,-114.095025,-177.56,236.44,85.81,1094.25,-83.65,0.76,225,225,1.01,4050,-2430,0,0,13.06,2.615872222
2017-04-13T15:21:07Z,51.057498,-114.09502,-177.56,236.44,85.81,1094.31,-83.58,1.23,-225,225,1.68,-1620,0.01,0,-0.01,13,2.616213889
2017-04-13T15:21:08Z,51.057498,-114.095018,-177.56,236.44,85.81,1094.44,-83.67,0.34,-450,450,-3.21,-810,809.99,0,0,13,2.616308333
2017-04-13T15:21:09Z,51.057498,-114.095017,-177.56,236.44,85.81,1094.31,-83.85,0.34,450,450,0,3240,0,0,0,13,2.616402778
2017-04-13T15:21:10Z,51.057498,-114.095015,-177.56,236.44,85.81,1094.62,-82.97,0.34,-1125,1125,0,-5670,2430,0,0,13,2.616497222
2017-04-13T15:21:11Z,51.057498,-114.095012,-177.56,236.44,85.81,1093.94,-83.98,0.84,2475,2475,1.78,12960,4860,0,0,13,2.616730556
2017-04-13T15:21:12Z,51.057498,-114.09501,-158.69,243.44,69,1095.12,-82.07,0.34,-4275,4275,-1.78,-24300,6480,0,0,12.94,2.616825
2017-04-13T15:21:13Z,51.057493,-114.094995,-155.56,242.94,70.62,1095.31,-83.03,4.27,-675,675.01,14.14,12960,-12959.95,0,-0.01,12.94,2.618011111
2017-04-13T15:21:15Z,51.057472,-114.094863,-131.5,233.44,72.31,1094.62,-81.37,34.24,2475,2475.24,107.91,11340,6480.8,0,0.01,12.94,2.627522222
2017-04-13T15:21:16Z,51.057482,-114.094765,-107.62,208.62,67.19,1094.94,-38.14,25.06,-1125,1125.28,-33.05,-12960,-4859.85,0,-0.02,12.94,2.634483333
2017-04-13T15:21:17Z,51.057518,-114.094682,-110.06,177.31,65.31,1095.12,-25.08,25.59,-675,675.48,1.91,1620,-1619.26,0,-0.04,12.94,2.641591667
2017-04-13T15:21:18Z,51.057582,-114.094642,-136.88,146.62,71,1095.38,-38.14,27.28,-900,900.41,6.06,-810,809.74,0,-0.03,12.94,2.649169444
2017-04-13T15:21:19Z,51.057655,-114.094627,-167.06,133.44,71.31,1095.62,-31.55,29.6,-900,900.49,8.35,0,0.26,0,-0.03,12.94,2.657391667
2017-04-13T15:21:20Z,51.05774,-114.094623,-169.31,132.19,71.31,1095.94,-31.12,34.03,-1125,1125.51,15.98,-810,810.1,0,-0.03,12.88,2.666844444
2017-04-13T15:21:21Z,51.057848,-114.094615,-171.12,130.81,73.19,1096.88,-40.98,43.41,-3375,3375.28,33.76,-8100,8099.15,0,-0.01,12.88,2.678902778
2017-04-13T15:21:23Z,51.05812,-114.094605,-175.5,128.62,76.44,1097.56,-38.7,108.77,-2475,2477.39,235.29,3240,-3232.4,0,-0.04,12.88,2.709116667
2017-04-13T15:21:24Z,51.058265,-114.094607,173.81,126.12,80.56,1097.94,-42.88,58.04,-1350,1351.25,-182.63,4050,-4054.11,0,-0.04,12.88,2.725238889
2017-04-13T15:21:25Z,51.058407,-114.094607,169.94,125.25,82.06,1097.81,-37.2,56.71,450,453.56,-4.81,6480,-3231.68,0,0.13,12.88,2.740991667
2017-04-13T15:21:26Z,51.058547,-114.094613,170.38,124.94,81.62,1098.19,-39.87,56.06,-1350,1351.16,-2.31,-6480,3231.38,0,-0.04,12.88,2.756563889
2017-04-13T15:21:27Z,51.058688,-114.094615,168.56,124.62,81.06,1098.56,-45,56.71,-1350,1351.19,2.32,0,0.1,0,-0.04,12.81,2.772316667
2017-04-13T15:21:28Z,51.058827,-114.09462,170.25,125.38,80.88,1098.75,-84.88,55.39,-675,677.27,-4.76,2430,-2426.12,0,-0.08,12.81,2.787702778
2017-04-13T15:21:30Z,51.05911,-114.094628,169,125.81,80.81,1099.12,-84.41,113.43,-1350,1354.76,208.96,-2430,2438.96,0,-0.08,12.81,2.819211111
2017-04-13T15:21:31Z,51.059253,-114.094635,170.38,126,80.38,1099.25,-83.25,57.4,-450,453.65,-201.72,3240,-3244,0,-0.13,12.81,2.835155556
2017-04-13T15:21:32Z,51.0594,-114.094642,173.12,126.69,79.56,1099.25,-84.97,58.73,0,58.73,4.8,1620,-1421.69,0,0,12.81,2.851469444
2017-04-13T15:21:33Z,51.059547,-114.094642,-175.44,130.06,78.31,1099.81,-87.23,58.71,-2025,2025.85,-0.09,-7290,7081.63,0,-0.03,12.81,2.867777778
2017-04-13T15:21:34Z,51.059682,-114.09463,-179.38,131.12,76.12,1099.88,-88.78,54.12,-225,231.42,-16.52,6480,-6459.96,0,-0.24,12.81,2.882811111
2017-04-13T15:21:35Z,51.059828,-114.094622,-171.88,132,77.25,1102.56,-87.79,58.75,-9675,9675.18,16.66,-34020,33997.54,0,-0.01,12.75,2.899130556
2017-04-13T15:21:36Z,51.059977,-114.094613,-173.81,130.31,77.69,1104.06,-88.04,59.41,-5400,5400.33,2.39,15390,-15389.47,0,-0.01,12.75,2.915633333
2017-04-13T15:21:38Z,51.060273,-114.094607,-174.88,129.94,77.44,1105.62,-88.37,118.76,-5625,5626.25,213.66,-810,813.34,0,-0.02,12.75,2.948622222
2017-04-13T15:21:39Z,51.06042,-114.094605,-178.19,129.44,77.38,1107,-89.58,58.71,-4950,4950.35,-216.19,2430,-2433.26,0,-0.01,12.75,2.964930556
2017-04-13T15:21:40Z,51.060565,-114.094598,-175.12,130.19,78,1108.38,-89.58,58.07,-4950,4950.34,-2.32,0,-0.03,0,-0.01,12.75,2.981061111
2017-04-13T15:21:41Z,51.06071,-114.094592,-178.06,131.12,77.19,1110.75,-91.09,58.07,-8550,8550.2,0,-12960,12959.48,0,-0.01,12.75,2.997191667
2017-04-13T15:21:42Z,51.060853,-114.094585,-178.94,130.69,76.25,1112.25,-92.59,57.4,-5400,5400.31,-2.4,11340,-11339.61,0,-0.01,12.75,3.013136111
2017-04-13T15:21:43Z,51.060995,-114.094575,176.94,130.56,76.81,1114.62,-93.94,56.76,-8550,8550.19,-2.29,-11340,11339.58,0,-0.01,12.69,3.028902778
2017-04-13T15:21:44Z,51.061138,-114.09456,178.62,131.38,76.44,1116.12,-93.87,57.5,-5400,5400.31,2.65,11340,-11339.58,0,-0.01,12.69,3.044875
2017-04-13T15:21:46Z,51.06143,-114.094533,-172.81,131.44,77.94,1117.38,-93.55,116.94,-4500,4501.52,214,3240,-3235.63,0,-0.03,12.69,3.077358333
2017-04-13T15:21:47Z,51.061573,-114.094528,-173.81,129.81,78.31,1120.5,-94.31,57.39,-11250,11250.15,-214.39,-24300,24295.06,0,-0.01,12.69,3.0933
2017-04-13T15:21:48Z,51.061718,-114.094525,-174.56,129.38,78.19,1121.25,-92.46,58.05,-2700,2700.62,2.37,30780,-30778.28,0,-0.02,12.69,3.109425
2017-04-13T15:21:49Z,51.061858,-114.094523,179.25,128,78.12,1122.25,-94.07,56.04,-3600,3600.44,-7.22,-3240,3239.32,0,-0.02,12.69,3.124991667
2017-04-13T15:21:50Z,51.061998,-114.09452,175.25,126.94,78,1123.62,-93.8,56.05,-4950,4950.32,0.02,-4860,4859.57,0,-0.01,12.62,3.140561111
2017-04-13T15:21:51Z,51.062133,-114.09452,175.06,127,77.56,1124.62,-93.51,54.04,-3600,3600.41,-7.23,4860,-4859.68,0,-0.02,12.62,3.155572222
2017-04-13T15:21:52Z,51.062267,-114.094518,167.06,126.06,78.62,1125.88,-94.15,53.37,-4500,4500.32,-2.4,-3240,3239.68,0,-0.01,12.62,3.170397222
2017-04-13T15:21:54Z,51.062523,-114.094513,162.69,127.5,80.06,1128.25,-93.14,102.75,-8550,8550.62,177.75,-14580,14581.08,0,-0.01,12.62,3.198938889
2017-04-13T15:21:55Z,51.062647,-114.094502,162.75,128.38,79.62,1129.38,-95.06,49.46,-4050,4050.3,-191.85,16200,-16201.14,0,-0.01,12.62,3.212677778
2017-04-13T15:21:56Z,51.062767,-114.09449,160.12,129.88,80.81,1129.56,-93.64,48.12,-675,676.71,-4.8,12150,-12144.92,0,-0.07,12.62,3.226044444
2017-04-13T15:21:57Z,51.062883,-114.094472,151,131.06,80.19,1130.62,-95.77,46.93,-3825,3825.29,-4.31,-11340,11334.87,0,-0.01,12.62,3.239080556
2017-04-13T15:21:58Z,51.062988,-114.094447,158.38,136.25,77.75,1130.81,-95.96,42.5,-675,676.34,-15.95,11340,-11336.23,0,-0.06,12.62,3.250886111
2017-04-13T15:21:59Z,51.063093,-114.094413,162,140.88,78.56,1131.81,-96.02,42.86,-3600,3600.26,1.3,-10530,10526.11,0,-0.01,12.56,3.262791667
2017-04-13T15:22:00Z,51.063195,-114.094365,162.75,143.12,78.94,1132.5,-95.99,42.47,-2475,2475.36,-1.38,4050,-4049.61,0,-0.02,12.56,3.274588889
2017-04-13T15:22:02Z,51.063388,-114.094265,166.44,145.88,78.5,1132.69,-95.93,81.37,-675,679.89,140.05,6480,-6463.72,0,-0.12,12.56,3.297191667
2017-04-13T15:22:03Z,51.063482,-114.094207,177.12,148.38,78.75,1133,-97.24,40.14,-1125,1125.72,-148.45,-1620,1604.98,0,-0.04,12.56,3.308341667
2017-04-13T15:22:04Z,51.063575,-114.094147,179,147.25,81.69,1134,-96.04,40.29,-3600,3600.23,0.56,-8910,8908.23,0,-0.01,12.56,3.319533333
2017-04-13T15:22:05Z,51.063672,-114.09409,-160.44,146.38,82.25,1134.38,-97.13,41.24,-1350,1350.63,3.39,8100,-8098.54,0,-0.03,12.56,3.330988889
2017-04-13T15:22:06Z,51.063772,-114.094042,-166.31,141.31,81.44,1135.38,-97.09,41.83,-3600,3600.24,2.15,-8100,8098.61,0,-0.01,12.56,3.342608333
2017-04-13T15:22:07Z,51.063868,-114.094008,-179.31,137.12,84.56,1135.31,-105.88,39.59,225,228.46,-8.07,13770,-12138.43,0,0.18,12.56,3.353605556
2017-04-13T15:22:09Z,51.064052,-114.093963,178.06,132.88,88.06,1135.31,-99.59,74.25,0,74.25,124.77,-810,-555.14,0,0,12.56,3.374230556
2017-04-13T15:22:10Z,51.064128,-114.093947,177.12,131.31,87.12,1135.5,-102.13,30.97,-675,675.71,-155.8,-2430,2165.25,0,-0.05,12.56,3.382833333
2017-04-13T15:22:11Z,51.064187,-114.093937,3.62,131.62,86.19,1135.69,-95.1,23.49,-675,675.41,-26.95,0,-1.09,0,-0.03,12.5,3.389358333
2017-04-13T15:22:12Z,51.064233,-114.09393,173.69,137.69,83.69,1136.44,-93.34,18.76,-2700,2700.07,-17.03,-7290,7288.76,0,-0.01,12.5,3.394569444
2017-04-13T15:22:13Z,51.06428,-114.093907,123.12,159.31,77.88,1136.12,-99.64,19.58,1125,1125.17,2.96,13770,-5669.62,0,0.02,12.5,3.400008333
2017-04-13T15:22:14Z,51.064323,-114.09385,148.25,189.5,69.25,1136.31,162.53,22.45,-675,675.37,10.34,-6480,-1619.27,0,-0.03,12.5,3.406244444
2017-04-13T15:22:15Z,51.064345,-114.093763,163.19,208.25,68.06,1136.31,164.05,23.46,0,23.46,3.64,2430,-2346.88,0,0,12.5,3.412761111
2017-04-13T15:22:17Z,51.064347,-114.093505,174.38,215.88,72.06,1135.75,168.89,64.99,2025,2026.04,149.5,7290,7209.29,0,0.03,12.5,3.430813889
2017-04-13T15:22:18Z,51.064347,-114.093352,176.75,217.38,76,1136.06,157.17,38.57,-1125,1125.66,-95.09,-11340,-3241.37,0,-0.03,12.5,3.441527778
2017-04-13T15:22:19Z,51.064347,-114.09319,171.31,217,79.19,1136.44,144.46,40.67,-1350,1350.61,7.54,-810,809.82,0,-0.03,12.5,3.452825
2017-04-13T15:22:20Z,51.064347,-114.093025,163.5,216.56,82.62,1136.5,143.62,41.51,-225,228.8,3.02,4050,-4038.54,0,-0.18,12.5,3.464355556
2017-04-13T15:22:21Z,51.064345,-114.092865,177.88,216.44,83.69,1136.56,164.12,40.25,-225,228.57,-4.52,0,-0.81,0,-0.18,12.5,3.475536111
2017-04-13T15:22:22Z,51.064343,-114.092715,176.69,215.12,85.19,1136.81,163.59,37.74,-900,900.79,-9.06,-2430,2419.99,0,-0.04,12.44,3.486019444
2017-04-13T15:22:23Z,51.064343,-114.092573,5.12,213.19,84.75,1136.12,152.28,35.64,2475,2475.26,-7.56,12150,5668.08,0,0.01,12.44,3.495919444
2017-04-13T15:22:25Z,51.064348,-114.092348,46.12,212.06,81,1135.75,157.65,56.64,1350,1351.19,75.6,-4050,-4046.65,0,0.04,12.44,3.511652778
2017-04-13T15:22:26Z,51.06435,-114.09229,36.88,211.88,78.81,1134.75,166.74,14.69,3600,3600.03,-151.01,8100,8095.83,0,0,12.44,3.515733333
2017-04-13T15:22:27Z,51.06435,-114.092268,-174.5,220.5,74.81,1135.75,158.44,5.45,-3600,3600,-33.27,-25920,-0.09,0,0,12.44,3.517247222
2017-04-13T15:22:28Z,51.064348,-114.092237,-168.5,222.19,68.12,1136.19,-83.63,7.99,-1575,1575.02,9.17,7290,-7289.94,0,-0.01,12.44,3.519466667
2017-04-13T15:22:29Z,51.06435,-114.092168,-174.06,219.25,71.56,1135.94,-83.75,17.2,900,900.16,33.16,8910,-2429.48,0,0.02,12.44,3.524244444
2017-04-13T15:22:30Z,51.064353,-114.092073,-174.94,221.44,73.69,1136.31,-83.56,23.93,-1350,1350.21,24.23,-8100,1620.17,0,-0.02,12.44,3.530891667
2017-04-13T15:22:31Z,51.064353,-114.091958,-173.75,221.38,75.19,1136.19,-83.43,28.93,450,450.93,17.98,6480,-3237.42,0,0.06,12.44,3.538927778
2017-04-13T15:22:33Z,51.06435,-114.091693,-174.88,220.75,75.81,1136.69,-84.89,66.68,-1800,1801.23,135.89,-8100,4861.1,0,-0.04,12.38,3.55745
2017-04-13T15:22:34Z,51.06435,-114.091545,-175.62,220.56,76.25,1136.69,-83.49,37.32,0,37.32,-105.7,6480,-6350.11,0,0,12.44,3.567816667
2017-04-13T15:22:35Z,51.06435,-114.091388,179.94,219.19,80.19,1137.19,-84.05,39.41,-1800,1800.43,7.54,-6480,6347.22,0,-0.02,12.38,3.578763889
2017-04-13T15:22:36Z,51.06435,-114.091232,168.62,217.62,83.12,1137.56,-83.21,39.41,-1350,1350.58,0,1620,-1619.48,0,-0.03,12.38,3.589711111
2017-04-13T15:22:37Z,51.064348,-114.091082,177.19,216.69,85.62,1136.69,-86.96,37.74,3150,3150.23,-6.02,16200,6478.74,0,0.01,12.38,3.600194444
2017-04-13T15:22:38Z,51.064348,-114.090943,77.19,216.25,80.38,1136.69,-84.95,34.8,0,34.8,-10.58,-11340,-11215.54,0,0,12.38,3.609861111
2017-04-13T15:22:39Z,51.064345,-114.090833,117.12,229.06,70.06,1136.88,-66.77,27.7,-675,675.57,-25.55,-2430,2306.77,0,-0.04,12.38,3.617555556
2017-04-13T15:22:41Z,51.064293,-114.090697,135.69,260.31,68.25,1136.31,-26.67,40.12,2025,2025.4,44.71,9720,4859.39,0,0.02,12.38,3.6287
2017-04-13T15:22:42Z,51.064245,-114.090667,133.56,280.25,74.06,1136.62,-26.3,20.77,-1125,1125.19,-69.66,-11340,-3240.74,0,-0.02,12.38,3.634469444
2017-04-13T15:22:43Z,51.064202,-114.090657,131.12,291.88,75.75,1138.88,-31.5,17.53,-8100,8100.02,-11.67,-25110,25109.38,0,0,12.38,3.639338889
2017-04-13T15:22:44Z,51.064153,-114.090652,111.25,301.44,69.69,1138.62,-44.85,19.39,900,900.21,6.7,32400,-25919.32,0,0.02,12.38,3.644725
2017-04-13T15:22:45Z,51.064118,-114.09067,121.25,330.44,74.25,1138.44,-55.81,14.75,675,675.16,-16.7,-810,-810.17,0,0.02,12.38,3.648822222
2017-04-13T15:22:46Z,51.064102,-114.090692,122.44,346.12,81.25,1138.25,-55.89,8.62,675,675.06,-22.06,0,-0.38,0,0.01,12.38,3.651216667
2017-04-13T15:22:47Z,51.06409,-114.090715,124.06,348.19,82.25,1138.06,-58.35,7.5,675,675.04,-4.02,0,-0.05,0,0.01,12.38,3.6533
2017-04-13T15:22:49Z,51.064085,-114.090728,133.44,348.94,82.19,1137.94,-52.67,3.91,450,450.02,-12.93,-810,-810.09,0,0.01,12.31,3.654386111
2017-04-13T15:22:50Z,51.064087,-114.090727,147.62,349.94,81.06,1138.25,-53.36,0.68,-1125,1125,-11.62,-5670,2429.94,0,0,12.31,3.654575
2017-04-13T15:22:51Z,51.064088,-114.090723,149.38,350.12,80.88,1137.5,-53.84,1.08,2700,2700,1.43,13770,5670,0,0,12.38,3.654875
2017-04-13T15:22:52Z,51.064088,-114.090722,149.38,350.12,80.88,1138.06,-53.36,0.48,-2025,2025,-2.15,-17010,-2430,0,0,12.31,3.655008333
2017-04-13T15:22:53Z,51.064088,-114.090722,173.69,355.06,72.06,1137.75,-53.47,0,1125,1125,-1.74,11340,-3240,0,0,12.31,3.655008333
2017-04-13T15:22:54Z,51.064085,-114.090735,169.69,359.75,76.56,1137.75,-53.34,3.62,0,3.62,13.02,-4050,-4036.98,0,0,12.31,3.656013889
2017-04-13T15:22:55Z,51.064075,-114.090758,162.44,3.75,76.81,1138.88,-58.67,7.1,-4050,4050.01,12.55,-14580,14567,0,0,12.31,3.657986111
2017-04-13T15:22:57Z,51.064055,-114.090852,157.94,18.44,76.31,1138.5,-60.07,24.8,1350,1350.23,63.73,19440,-9719.2,0,0.02,12.31,3.664875
2017-04-13T15:22:58Z,51.064048,-114.090905,156.75,31.38,80.94,1138.62,-62.18,13.68,-450,450.21,-40.05,-6480,-3240.07,0,-0.03,12.31,3.668675
2017-04-13T15:22:59Z,51.06405,-114.090968,168.62,35.56,79.38,1138,-66.36,15.95,2250,2250.06,8.17,9720,6479.46,0,0.01,12.31,3.673105556
2017-04-13T15:23:00Z,51.064055,-114.091038,165.81,34.19,81,1138.31,-67.05,17.72,-1125,1125.14,6.38,-12150,-4049.7,0,-0.02,12.31,3.678027778
2017-04-13T15:23:01Z,51.064057,-114.091103,177.44,31.94,83.19,1138.62,-78.57,16.36,-1125,1125.12,-4.9,0,-0.07,0,-0.01,12.25,3.682572222
2017-04-13T15:23:02Z,51.064052,-114.091163,175.62,27.38,85.62,1136.19,-93.24,15.22,8775,8775.01,-4.1,35640,27539.62,0,0,12.25,3.6868
2017-04-13T15:23:03Z,51.064058,-114.091242,176.56,28.31,83.81,1135.88,-94.11,19.89,1125,1125.18,16.79,-27540,-27539.41,0,0.02,12.25,3.692325
2017-04-13T15:23:05Z,51.064053,-114.09137,139.62,29.88,81.75,1135.5,-84.85,32.35,1350,1350.39,44.85,810,810.76,0,0.02,12.25,3.701311111
2017-04-13T15:23:06Z,51.064052,-114.091433,152.12,28.88,81.06,1135.31,-90.17,15.95,675,675.19,-59.04,-2430,-2430.72,0,0.02,12.25,3.705741667
2017-04-13T15:23:07Z,51.064055,-114.091493,129.5,35.75,76.5,1135.44,-90.99,15.15,-450,450.25,-2.87,-4050,-809.76,0,-0.03,12.25,3.70995
2017-04-13T15:23:08Z,51.064067,-114.091537,140.88,63.38,72.75,1135.75,-99.2,11.86,-1125,1125.06,-11.85,-2430,2429.31,0,-0.01,12.25,3.713244444
2017-04-13T15:23:09Z,51.06409,-114.091568,154.06,93.62,74.69,1136.06,-109.09,12.27,-1125,1125.07,1.5,0,0.02,0,-0.01,12.25,3.716652778
2017-04-13T15:23:10Z,51.064122,-114.091587,138.94,108,74.25,1135.69,-128.66,13.49,1350,1350.07,4.37,8910,810,0,0.01,12.25,3.7204
2017-04-13T15:23:11Z,51.06416,-114.09159,131.31,139.62,72.38,1135.69,134.23,15.37,0,15.37,6.76,-4860,-4804.92,0,0,12.19,3.724669444
2017-04-13T15:23:13Z,51.064205,-114.09152,147.62,175.56,71.19,1135.19,111.74,25.19,1800,1800.18,35.36,6480,6425.31,0,0.01,12.25,3.731666667
2017-04-13T15:23:14Z,51.064212,-114.091457,165.06,198.06,74.31,1135.56,114.29,16.16,-1350,1350.1,-32.52,-11340,-1620.29,0,-0.01,12.19,3.736155556
2017-04-13T15:23:15Z,51.064212,-114.091385,169.5,208.75,77.38,1135.19,125.91,18.03,1350,1350.12,6.75,9720,0.09,0,0.01,12.19,3.741163889
2017-04-13T15:23:16Z,51.064213,-114.091322,178.06,210.12,80.06,1135.5,112.48,15.95,-1125,1125.11,-7.5,-8910,-810.03,0,-0.01,12.19,3.745594444
2017-04-13T15:23:17Z,51.06421,-114.091257,-175.94,209.88,76.25,1135.94,132.74,16.4,-1575,1575.09,1.62,-1620,1619.9,0,-0.01,12.19,3.75015
2017-04-13T15:23:18Z,51.06421,-114.091188,179.12,206,83.69,1136.12,138.46,17.18,-675,675.22,2.82,3240,-3239.52,0,-0.03,12.19,3.754922222
2017-04-13T15:23:19Z,51.064208,-114.091128,179.38,205.31,84.62,1136.69,138.3,15.11,-2025,2025.06,-7.47,-4860,4859.42,0,-0.01,12.19,3.759119444
2017-04-13T15:23:20Z,51.064207,-114.091065,-179.38,204.38,85.5,1136.38,136.33,15.95,1125,1125.11,3.03,11340,-3239.8,0,0.01,12.19,3.76355
2017-04-13T15:23:22Z,51.064212,-114.090945,175.81,204,83,1135.94,141.19,30.25,1575,1575.29,51.49,1620,1620.64,0,0.02,12.19,3.771952778
2017-04-13T15:23:23Z,51.064212,-114.0909,176.62,208.5,85.12,1135.88,142.13,11.32,225,225.28,-68.14,-4860,-4860.02,0,0.05,12.19,3.775097222
2017-04-13T15:23:24Z,51.06421,-114.090867,177.62,213.88,83.56,1135.94,136.7,8.41,-225,225.16,-10.48,-1620,-0.46,0,-0.04,12.19,3.777433333
2017-04-13T15:23:25Z,51.064208,-114.090842,177.31,217.75,83.38,1136.06,141.88,6.32,-450,450.04,-7.53,-810,809.59,0,-0.01,12.19,3.779188889
2017-04-13T15:23:26Z,51.064203,-114.090823,160.69,221.56,83,1136,126.67,5.02,225,225.06,-4.67,2430,-809.96,0,0.02,12.19,3.780583333
2017-04-13T15:23:27Z,51.0642,-114.09081,171.44,227.81,82.12,1136,139.26,3.62,0,3.62,-5.06,-810,-797.18,0,0,12.19,3.781588889
2017-04-13T15:23:28Z,51.064193,-114.090795,170.31,230.81,83.12,1137.31,-83.12,4.64,-4725,4725,3.67,-17010,16996.99,0,0,12.12,3.782877778
2017-04-13T15:23:30Z,51.064185,-114.09078,178.25,230.12,84.31,1137.38,-82.86,5.05,-225,225.06,1.48,16200,-16199.8,0,-0.02,12.12,3.784280556
2017-04-13T15:23:31Z,51.064183,-114.09078,171.31,230.75,82.5,1137.94,-81.95,0.68,-2025,2025,-15.7,-6480,6479.8,0,0,12.12,3.784469444
2017-04-13T15:23:32Z,51.064183,-114.090782,172.12,230.81,82.19,1137.75,-81.95,0.34,675,675,-1.23,9720,-4860,0,0,12.12,3.784563889
2017-04-13T15:23:33Z,51.064183,-114.090782,172.12,230.81,82.19,1137.44,-82.15,0,1125,1125,-1.23,1620,1620,0,0,12.12,3.784563889
2017-04-13T15:23:34Z,51.064183,-114.090782,172.19,230.81,82,1137.81,-82.75,0,-1350,1350,0,-8910,810,0,0,12.12,3.784563889
2017-04-13T15:23:35Z,51.064183,-114.090783,172.5,230.88,81.94,1137.69,-83.42,0.34,450,450,1.23,6480,-3240,0,0,12.12,3.784658333
2017-04-13T15:23:36Z,51.064173,-114.09078,172.5,230.88,81.94,1137.75,-83.35,4.09,-225,225.04,13.48,-2430,-809.87,0,-0.02,12.12,3.785794444
2017-04-13T15:23:38Z,51.06417,-114.090778,173.12,230.94,81.88,1137.62,-81.59,1.37,450,450,-9.79,2430,809.87,0,0,12.12,3.786175
2017-04-13T15:23:39Z,51.06417,-114.090778,-178.19,232.5,78.12,1137.62,-80.42,0,0,0,-4.92,-1620,-1620.01,0,0,12.12,3.786175
2017-04-13T15:23:40Z,51.06416,-114.090767,-177.69,235.44,76.88,1137.69,-81.68,4.95,-225,225.05,17.83,-810,810.2,0,-0.02,12.12,3.78755
2017-04-13T15:23:41Z,51.064155,-114.090747,174.12,237.19,77.31,1137.56,-83.01,5.43,450,450.03,1.7,2430,809.92,0,0.01,12.12,3.789058333
2017-04-13T15:23:42Z,51.064147,-114.090727,158.31,239.5,78.56,1138.06,-80.3,6.06,-1800,1800.01,2.27,-8100,4859.92,0,0,12.06,3.790741667
2017-04-13T15:23:43Z,51.064135,-114.0907,155.25,253.94,76.12,1138.25,-65.38,8.18,-675,675.05,7.65,4050,-4049.86,0,-0.01,12.06,3.793013889
2017-04-13T15:23:44Z,51.064112,-114.090677,158.38,263.62,78.19,1138.12,-55.93,11.03,450,450.14,10.24,4050,-809.69,0,0.02,12.06,3.796077778
