time,latitude,longitude,pitch,yaw,roll,altitude,heading,gvelocity,vvelocity,fvelocity,xaccel,yaccel,zaccel,aoa,gratio,temperature,distance
(yyyy-MM-ddTHH:mm:ssZ),(deg),(deg),(deg),(deg),(deg),(m),(deg),(km/s),(km/s),(km/s),(m/s2),(m/s2),(m/s2),(deg),(ratio),(celsius),(km)
2017-04-06T16:50:00Z,51.058022,-114.127527,5.19,0,1.31,1130.88,150.14,1.296,0,1.296,0.36,0,0.36,0,0,19.25,0
2017-04-06T16:50:01Z,51.058028,-114.12751,5.19,0,1.31,1131.31,147.67,4.968,-1.584,5.22,1.03,-0.44,1.09,0,-3.16,19.25,0.00138
2017-04-06T16:50:03Z,51.058033,-114.127495,5.19,0,1.31,1130.88,149.84,4.284,1.584,4.536,-0.2,0.88,-0.19,0,2.71,19.31,0.00257
2017-04-06T16:50:04Z,51.058038,-114.127473,5.19,0,1.31,1130.88,148.17,5.796,0,5.796,0.43,-0.44,0.35,0,0,19.31,0.00418
2017-04-06T16:50:05Z,51.058045,-114.127458,5.19,0,1.31,1131.12,148.35,4.608,-0.9,4.68,-0.33,-0.25,-0.31,0,-5.12,19.31,0.00546
2017-04-06T16:50:06Z,51.058048,-114.127442,5.19,0,1.31,1130.94,148.84,4.392,0.684,4.428,-0.06,0.44,-0.07,0,6.5,19.31,0.00668
2017-04-06T16:50:07Z,51.05805,-114.127433,5.19,0,1.31,1131,149.14,2.232,-0.216,2.232,-0.6,-0.25,-0.62,0,-9.84,19.31,0.0073
2017-04-06T16:50:08Z,51.05807,-114.127405,5.19,0,1.31,1131.38,150.75,10.728,-1.368,10.8,2.36,-0.31,2.38,0,-7.94,19.25,0.01028
2017-04-06T16:50:09Z,51.058085,-114.127388,5.19,0,1.31,1130.94,148.84,7.308,1.584,7.488,-0.94,0.81,-0.92,0,4.65,19.31,0.01231
2017-04-06T16:50:10Z,51.05809,-114.127382,5.19,0,1.31,1131.75,148.35,2.592,-2.916,3.924,-1.31,-1.25,-0.99,0,-0.89,19.25,0.01303
2017-04-06T16:50:11Z,51.058108,-114.127358,5.69,359.88,0.56,1131.31,148.84,9.396,1.584,9.54,1.89,1.25,1.56,0,5.97,19.31,0.01564
2017-04-06T16:50:12Z,51.058107,-114.127395,4.62,32.75,-0.12,1131.19,90.68,9.252,0.432,9.252,-0.04,-0.31,-0.08,0,20.55,19.31,0.01821
2017-04-06T16:50:13Z,51.058073,-114.12745,6,57.5,-1.56,1131.62,118.29,19.224,-1.584,19.296,2.77,-0.56,2.79,0,-12.2,19.31,0.02355
2017-04-06T16:50:14Z,51.058065,-114.127485,6.06,57.5,-1.69,1131.31,116.38,9.432,1.116,9.468,-2.72,0.75,-2.72,0,8.37,19.31,0.02617
2017-04-06T16:50:15Z,51.058067,-114.127498,6.19,61.62,-1.69,1131.38,117.28,3.42,-0.216,3.456,-1.66,-0.38,-1.68,0,-15.26,19.31,0.02712
2017-04-06T16:50:16Z,51.058068,-114.127505,-18.56,48.62,-8,1131.31,-55.2,1.8,0.216,1.836,-0.45,0.12,-0.45,0,8.04,19.31,0.02762
2017-04-06T16:50:17Z,51.058092,-114.127418,33,4.62,-16.06,1131.44,77.45,23.724,-0.432,23.724,6.09,-0.19,6.08,0,-52.71,19.31,0.03421
2017-04-06T16:50:18Z,51.058085,-114.12742,33.5,347.5,-11.94,1131.81,75.61,2.7,-1.368,3.024,-5.84,-0.25,-5.75,0,-2.01,19.31,0.03496
2017-04-06T16:50:19Z,51.058087,-114.12741,37.31,296.62,-19.69,1131.81,49.01,2.592,0,2.592,-0.03,0.38,-0.12,0,0,19.31,0.03568
2017-04-06T16:50:20Z,51.058085,-114.1274,39.75,242.44,-35,1131.31,28.32,2.592,1.8,3.168,0,0.5,0.16,0,1.45,19.31,0.0364
2017-04-06T16:50:21Z,51.058088,-114.127395,49.62,194.31,-23.44,1130.5,40.77,1.836,2.916,3.456,-0.21,0.31,0.08,0,0.63,19.31,0.03691
2017-04-06T16:50:22Z,51.05809,-114.127403,39.31,137.31,-24.31,1129.75,53.95,2.196,2.7,3.492,0.1,-0.06,0.01,0,0.81,19.31,0.03752
2017-04-06T16:50:23Z,51.0581,-114.12739,13.75,82.81,-21.94,1128.75,72.87,5.22,3.6,6.336,0.84,0.25,0.8,0,1.45,19.31,0.03897
2017-04-06T16:50:24Z,51.05811,-114.127375,12.44,59.44,-9.94,1128.81,99.17,5.508,-0.216,5.508,0.08,-1.06,-0.23,0,-24.44,19.31,0.0405
2017-04-06T16:50:25Z,51.0581,-114.127392,43.75,335.38,-20,1129,66.01,5.796,-0.684,5.832,0.08,-0.12,0.09,0,-8.59,19.31,0.04211
2017-04-06T16:50:26Z,51.058093,-114.127405,36.94,290.12,-19.12,1128.69,45.93,4.284,1.116,4.428,-0.42,0.5,-0.39,0,3.82,19.31,0.0433
2017-04-06T16:50:27Z,51.058078,-114.127427,42.69,230.06,-22.06,1128.19,34.55,8.1,1.8,8.316,1.06,0.19,1.07,0,4.5,19.31,0.04555
2017-04-06T16:50:28Z,51.058082,-114.12742,37.19,198.06,-22.88,1127.81,29.37,2.124,1.368,2.52,-1.66,-0.12,-1.6,0,1.58,19.31,0.04614
2017-04-06T16:50:29Z,51.058077,-114.127425,39.88,153.06,-22.06,1127.12,52.71,2.34,2.484,3.42,0.06,0.31,0.25,0,0.95,19.31,0.04679
2017-04-06T16:50:30Z,51.05808,-114.127418,21.5,94.12,-15.44,1126.38,90,2.124,2.7,3.456,-0.06,0.06,0.01,0,0.79,19.38,0.04738
2017-04-06T16:50:31Z,51.058085,-114.12741,16.75,29.25,-17.69,1126.38,79.95,2.916,0,2.916,0.21,-0.75,-0.15,0,0,19.31,0.04819
2017-04-06T16:50:32Z,51.058078,-114.127415,-0.94,65.12,-7.56,1126.44,175.57,2.952,-0.216,2.952,0.01,-0.06,0.01,0,-13.07,19.31,0.04901
2017-04-06T16:50:33Z,51.058068,-114.127405,-0.31,87.88,-5.75,1126.62,172.61,4.716,-0.684,4.752,0.49,-0.12,0.5,0,-6.98,19.31,0.05032
2017-04-06T16:50:34Z,51.058072,-114.127387,13.31,89.12,-10.5,1126.5,124.8,4.824,0.432,4.824,0.03,0.31,0.02,0,10.69,19.31,0.05166
2017-04-06T16:50:35Z,51.05808,-114.1274,10.94,25.88,-16.56,1126.31,74.28,4.752,0.684,4.788,-0.02,0.06,-0.01,0,7.02,19.38,0.05298
2017-04-06T16:50:36Z,51.058078,-114.127398,7.62,67.19,-2.94,1126.5,133.27,0.828,-0.684,1.08,-1.08,-0.38,-1.03,0,-1.24,19.38,0.05321
2017-04-06T16:50:37Z,51.058078,-114.127388,5.62,109.31,-8.06,1126.75,171.03,2.484,-0.9,2.628,0.46,-0.06,0.44,0,-2.76,19.38,0.0539
2017-04-06T16:50:38Z,51.058087,-114.127398,5.81,121.06,-0.12,1126.31,-178.81,4.176,1.584,4.464,0.47,0.69,0.5,0,2.65,19.38,0.05506
2017-04-06T16:50:40Z,51.058083,-114.127398,2.19,130.88,-3.69,1126.44,-138.53,1.368,-0.432,1.44,-0.78,-0.56,-0.84,0,-3.04,19.38,0.05544
2017-04-06T16:50:41Z,51.058093,-114.127372,5,122.62,-2.31,1126.94,-169.95,7.812,-1.8,8.028,1.79,-0.38,1.83,0,-4.34,19.31,0.05761
2017-04-06T16:50:42Z,51.058088,-114.127378,8.31,115.19,1.25,1126.69,174.29,2.592,0.9,2.736,-1.45,0.75,-1.46,0,2.89,19.38,0.05833
2017-04-06T16:50:43Z,51.058092,-114.127373,8.44,108.44,-0.19,1126.5,160.56,1.872,0.684,1.98,-0.2,-0.06,-0.21,0,2.77,19.38,0.05885
2017-04-06T16:50:44Z,51.058087,-114.127385,15.31,70.06,-7.62,1126.69,111.88,3.564,-0.684,3.636,0.47,-0.38,0.46,0,-5.29,19.38,0.05984
2017-04-06T16:50:45Z,51.058092,-114.127367,4.88,21.56,-7.25,1126.5,88.99,5.04,0.684,5.076,0.41,0.38,0.4,0,7.46,19.38,0.06124
2017-04-06T16:50:46Z,51.058088,-114.127375,4.19,55.06,-10.44,1126.69,111.24,2.52,-0.684,2.592,-0.7,-0.38,-0.69,0,-3.72,19.38,0.06194
2017-04-06T16:50:47Z,51.058087,-114.127388,-7,87.75,-9.88,1126.56,-148.64,3.42,0.432,3.456,0.26,0.31,0.24,0,7.63,19.38,0.06289
2017-04-06T16:50:48Z,51.058087,-114.127383,2.06,101.94,-16.56,1127,45,1.296,-1.584,2.016,-0.6,-0.56,-0.4,0,-0.81,19.38,0.06325
2017-04-06T16:50:49Z,51.058087,-114.127377,3.94,91.38,-20.88,1126.81,56.13,1.692,0.684,1.8,0.11,0.62,-0.06,0,2.48,19.38,0.06372
2017-04-06T16:50:50Z,51.05809,-114.127375,17.19,79.38,-11.69,1126.69,113.11,1.368,0.432,1.44,-0.09,-0.06,-0.1,0,3.04,19.38,0.0641
2017-04-06T16:50:51Z,51.058083,-114.127375,5.94,54.94,-10.94,1126.94,101.04,2.664,-0.9,2.808,0.36,-0.38,0.38,0,-2.94,19.38,0.06484
2017-04-06T16:50:52Z,51.058077,-114.127372,1.81,70.06,-16.5,1126.44,98.47,2.808,1.8,3.312,0.04,0.75,0.15,0,1.55,19.38,0.06562
2017-04-06T16:50:53Z,51.058067,-114.127363,3.38,84.19,-18.19,1126.75,116,4.5,-1.116,4.644,0.48,-0.81,0.37,0,-4.01,19.38,0.06687
2017-04-06T16:50:54Z,51.05805,-114.127393,7,99.69,-22.12,1126.56,17.85,10.08,0.684,10.08,1.55,0.5,1.51,0,14.93,19.38,0.06967
2017-04-06T16:50:55Z,51.058037,-114.127422,10.19,79.69,-3.94,1126.88,140.89,8.892,-1.116,8.964,-0.33,-0.5,-0.31,0,-7.91,19.38,0.07214
2017-04-06T16:50:56Z,51.05803,-114.127415,3.88,19.81,-4.06,1128.56,104.84,3.168,-6.084,6.84,-1.6,-1.38,-0.59,0,-0.52,19.38,0.07302
2017-04-06T16:50:57Z,51.058015,-114.127423,24.31,88.25,1.75,1129.94,129.32,6.372,-4.968,8.064,0.89,0.31,0.34,0,-1.28,19.38,0.07479
2017-04-06T16:50:58Z,51.058005,-114.12743,15.44,87.5,-2.75,1133.06,124.85,4.32,-11.232,12.06,-0.56,-1.75,1.11,0,-0.39,19.38,0.07599
2017-04-06T16:50:59Z,51.057983,-114.127438,22.12,35.88,1.12,1131.31,108.19,8.928,6.3,10.908,1.27,4.88,-0.31,0,1.42,19.38,0.07847
2017-04-06T16:51:00Z,51.057977,-114.127442,-0.25,279.06,2.75,1130.56,29.41,2.772,2.7,3.888,-1.71,-1,-1.96,0,1.03,19.38,0.07924
2017-04-06T16:51:01Z,51.05799,-114.127427,3.69,295.44,-1.06,1129.19,130.89,6.516,4.968,8.208,1.04,0.62,1.2,0,1.32,19.31,0.08105
2017-04-06T16:51:02Z,51.05799,-114.127432,3.75,333,-1.12,1129.38,126.87,1.188,-0.684,1.368,-1.48,-1.56,-1.9,0,-1.75,19.25,0.08138
2017-04-06T16:51:03Z,51.057983,-114.127437,3.75,0.94,-1.12,1130.12,136.22,2.952,-2.7,3.996,0.49,-0.56,0.73,0,-1.09,19.25,0.0822
2017-04-06T16:51:04Z,51.057983,-114.127438,3.75,17.56,-1.12,1130.12,131.11,0.324,0,0.324,-0.72,0.75,-1.01,0,0,19.25,0.08229
2017-04-06T16:51:05Z,51.057982,-114.127437,3.75,28.5,-1.12,1130.56,132.71,0.756,-1.584,1.764,0.12,-0.44,0.39,0,-0.49,19.25,0.0825
2017-04-06T16:51:06Z,51.057972,-114.127443,3.75,35.44,-1.12,1130.62,135.32,4.356,-0.216,4.356,1,0.38,0.72,0,-19.33,19.25,0.08371
2017-04-06T16:51:07Z,51.057963,-114.127447,3.75,39.88,-1.12,1130.56,134.12,3.456,0.216,3.456,-0.25,0.12,-0.25,0,15.34,19.25,0.08467
2017-04-06T16:51:08Z,51.05796,-114.12745,3.75,42.5,-1.12,1130.75,128.93,1.62,-0.684,1.728,-0.51,-0.25,-0.48,0,-2.37,19.25,0.08512
2017-04-06T16:51:09Z,51.057957,-114.127453,3.75,45.12,-1.12,1130.56,136.04,1.62,0.684,1.728,0,0.38,0,0,2.37,19.25,0.08557
2017-04-06T16:51:10Z,51.057953,-114.127455,3.75,46.56,-1.12,1130.56,135.32,1.404,0,1.404,-0.05,-0.19,-0.09,0,0,19.25,0.08596
2017-04-06T16:51:11Z,51.057952,-114.127452,3.75,47.25,-1.12,1131,135.32,1.08,-1.584,1.908,-0.09,-0.44,0.14,0,-0.69,19.19,0.08626
2017-04-06T16:51:12Z,51.057953,-114.127453,3.75,47.38,-1.12,1130.94,136.22,0.828,0.216,0.864,-0.07,0.5,-0.29,0,3.72,19.19,0.08649
2017-04-06T16:51:13Z,51.057952,-114.127453,3.75,47.38,-1.12,1130.62,135.32,0.684,1.116,1.332,-0.04,0.25,0.12,0,0.61,19.25,0.08668
2017-04-06T16:51:14Z,51.057947,-114.127458,3.75,47.38,-1.12,1130.62,142,2.376,0,2.376,0.47,-0.31,0.29,0,0,19.19,0.08734
2017-04-06T16:51:15Z,51.057945,-114.127462,3.75,47.38,-1.12,1130.81,138.24,1.08,-0.684,1.26,-0.36,-0.19,-0.3,0,-1.6,19.19,0.08764
2017-04-06T16:51:16Z,51.057942,-114.127465,3.75,47.38,-1.12,1130.81,131.96,1.62,0,1.62,0.15,0.19,0.09,0,0,19.19,0.08809
2017-04-06T16:51:17Z,51.057938,-114.127468,3.75,47.38,-1.12,1130.5,138.24,1.512,1.116,1.908,-0.02,0.31,0.08,0,1.36,19.19,0.08851
2017-04-06T16:51:18Z,51.057937,-114.12747,3.75,47.38,-1.12,1130.88,135.32,0.756,-1.368,1.548,-0.21,-0.69,-0.1,0,-0.57,19.19,0.08872
2017-04-06T16:51:19Z,51.057935,-114.127472,3.75,47.38,-1.12,1130.62,134.05,0.684,0.9,1.116,-0.02,0.62,-0.12,0,0.76,19.19,0.08891
2017-04-06T16:51:20Z,51.057935,-114.127473,3.75,47.38,-1.12,1130.88,134.05,0.468,-0.9,1.008,-0.06,-0.5,-0.03,0,-0.54,19.19,0.08904
2017-04-06T16:51:21Z,51.057935,-114.127473,3.75,47.38,-1.12,1130.69,130.56,0,0.684,0.684,-0.13,0.44,-0.1,0,0,19.19,0.08904
2017-04-06T16:51:22Z,51.057935,-114.127473,3.75,47.38,-1.12,1130.5,132.4,0,0.684,0.684,0,0,0,0,0,19.19,0.08904
2017-04-06T16:51:23Z,51.057935,-114.127475,3.75,47.38,-1.12,1130.69,133.92,0.468,-0.684,0.828,0.13,-0.38,0.04,0,-0.72,19.19,0.08917
2017-04-06T16:51:24Z,51.057935,-114.127477,3.75,47.38,-1.12,1130.88,130.56,0.468,-0.684,0.828,0,0,0,0,-0.72,19.19,0.0893
2017-04-06T16:51:26Z,51.057935,-114.127478,3.75,47.38,-1.12,1130.5,134.05,0.468,1.368,1.44,0,0.56,0.17,0,0.36,19.19,0.08943
2017-04-06T16:51:27Z,51.057935,-114.12748,3.75,47.38,-1.12,1130.56,131.11,0.468,-0.216,0.54,0,-0.44,-0.25,0,-2.15,19.19,0.08956
2017-04-06T16:51:28Z,51.057937,-114.127482,3.75,47.38,-1.12,1130.56,131.96,0.684,0,0.684,0.06,0.06,0.04,0,0,19.19,0.08975
2017-04-06T16:51:29Z,51.057937,-114.127485,3.75,47.38,-1.12,1130.88,134.12,0.828,-1.116,1.404,0.04,-0.31,0.2,0,-0.74,19.19,0.08998
2017-04-06T16:51:30Z,51.057935,-114.127488,3.75,47.38,-1.12,1130.62,135.32,1.008,0.9,1.368,0.05,0.56,-0.01,0,1.14,19.19,0.09026
2017-04-06T16:51:31Z,51.057937,-114.12749,3.75,47.38,-1.12,1130.69,134.12,0.684,-0.216,0.72,-0.09,-0.31,-0.18,0,-3.04,19.19,0.09045
2017-04-06T16:51:32Z,51.057937,-114.127493,3.75,47.38,-1.12,1130.5,130.29,0.828,0.684,1.08,0.04,0.25,0.1,0,1.24,19.19,0.09068
2017-04-06T16:51:33Z,51.057938,-114.127497,3.75,47.38,-1.12,1130.5,135.32,1.08,0,1.08,0.07,-0.19,0,0,0,19.19,0.09098
2017-04-06T16:51:34Z,51.057938,-114.127498,3.75,47.38,-1.12,1130.69,134.44,0.468,-0.684,0.828,-0.17,-0.19,-0.07,0,-0.72,19.12,0.09111
2017-04-06T16:51:35Z,51.057938,-114.127502,3.75,47.38,-1.12,1130.69,128.93,0.828,0,0.828,0.1,0.19,0,0,0,19.12,0.09134
2017-04-06T16:51:36Z,51.05794,-114.127502,3.75,47.38,-1.12,1131.31,132.4,0.684,-2.232,2.34,-0.04,-0.62,0.42,0,-0.3,19.12,0.09153
2017-04-06T16:51:37Z,51.05794,-114.1275,3.75,47.38,-1.12,1131.06,136.22,0,0.9,0.9,-0.19,0.88,-0.4,0,0,19.12,0.09153
2017-04-06T16:51:38Z,51.05794,-114.127498,3.75,47.38,-1.12,1131,128.93,0,0.216,0.216,0,-0.19,-0.19,0,0,19.12,0.09153
2017-04-06T16:51:39Z,51.05794,-114.127495,3.75,47.38,-1.12,1130.5,142,0.684,1.8,1.908,0.19,0.44,0.47,0,0.38,19.12,0.09172
2017-04-06T16:51:40Z,51.05794,-114.127492,3.75,47.38,-1.12,1130.62,128.93,0.684,-0.432,0.828,0,-0.62,-0.31,0,-1.52,19.12,0.09191
2017-04-06T16:51:41Z,51.057937,-114.12749,3.75,47.38,-1.12,1130.88,129.49,1.368,-0.9,1.62,0.19,-0.12,0.23,0,-1.52,19.12,0.09229
2017-04-06T16:51:42Z,51.057935,-114.127488,3.75,47.38,-1.12,1131.06,135.98,0.684,-0.684,0.972,-0.19,0.06,-0.19,0,-1.01,19.12,0.09248
2017-04-06T16:51:43Z,51.057933,-114.127485,3.75,47.38,-1.12,1130.81,134.36,1.08,0.9,1.404,0.11,0.44,0.12,0,1.2,19.12,0.09278
2017-04-06T16:51:44Z,51.057932,-114.127485,3.75,47.38,-1.12,1130.88,130.89,0.684,-0.216,0.72,-0.11,-0.31,-0.19,0,-3.04,19.12,0.09297
2017-04-06T16:51:45Z,51.057933,-114.127485,3.75,47.38,-1.12,1130.62,129.49,0.684,0.9,1.116,0,0.31,0.11,0,0.76,19.12,0.09316
2017-04-06T16:51:46Z,51.057933,-114.127485,3.75,47.38,-1.12,1130.69,132.71,0.324,-0.216,0.396,-0.09,-0.31,-0.2,0,-1.52,19.06,0.09325
2017-04-06T16:51:47Z,51.057937,-114.127487,2.56,51.06,-0.88,1130.75,140.19,1.368,-0.216,1.368,0.28,0,0.27,0,-6.08,19.06,0.09363
2017-04-06T16:51:48Z,51.057938,-114.127485,-41.12,81.12,6.5,1130.62,-88.73,0.756,0.432,0.9,-0.17,0.19,-0.14,0,1.7,19.06,0.09384
2017-04-06T16:51:49Z,51.057937,-114.127488,-10.75,133.25,18.81,1132.25,163.68,1.08,-5.832,5.94,0.09,-1.75,1.41,0,-0.18,19.06,0.09414
2017-04-06T16:51:50Z,51.057923,-114.127492,-17.75,86.06,20.31,1130.81,-167.08,5.4,5.184,7.488,1.2,3.06,0.43,0,1.04,19.06,0.09564
2017-04-06T16:51:51Z,51.057907,-114.127493,12.38,80.31,-5.94,1133.56,111.56,6.696,-9.9,11.952,0.35,-4.19,1.24,0,-0.67,19,0.0975
2017-04-06T16:51:52Z,51.057897,-114.127487,9.94,59.12,-4.06,1133.81,106.12,4.356,-0.9,4.428,-0.65,2.5,-2.08,0,-4.83,19,0.09871
2017-04-06T16:51:53Z,51.057885,-114.127475,12.5,54.25,-6.44,1133.94,108.15,5.508,-0.432,5.544,0.33,0.12,0.3,0,-12.27,18.94,0.10024
2017-04-06T16:51:54Z,51.057873,-114.127467,8.38,63.88,-8.94,1135.69,103.98,5.112,-6.3,8.1,-0.11,-1.62,0.72,0,-0.81,18.88,0.10166
2017-04-06T16:51:55Z,51.057862,-114.12746,10.94,68.94,-8.38,1135,109.29,4.968,2.484,5.544,-0.05,2.44,-0.72,0,2,18.88,0.10304
2017-04-06T16:51:56Z,51.057847,-114.127455,4.19,83.44,-6.06,1134.62,152.12,6.12,1.368,6.264,0.33,-0.31,0.21,0,4.54,18.88,0.10474
2017-04-06T16:51:57Z,51.057837,-114.12744,-3.12,72.5,-1,1134.56,174.34,5.508,0.216,5.508,-0.18,-0.31,-0.22,0,24.44,18.88,0.10627
2017-04-06T16:51:58Z,51.057825,-114.127423,9.19,67.38,4.06,1134.88,139.4,6.3,-1.116,6.372,0.22,-0.38,0.24,0,-5.58,18.75,0.10802
2017-04-06T16:51:59Z,51.05781,-114.127413,12.25,63.06,-5.5,1134.31,114.29,6.516,2.016,6.804,0.06,0.88,0.12,0,3.21,18.75,0.10983
2017-04-06T16:52:00Z,51.057797,-114.127408,8.06,44.44,-7.38,1134.5,93.63,5.472,-0.684,5.544,-0.28,-0.75,-0.36,0,-8.13,18.75,0.11135
2017-04-06T16:52:01Z,51.057787,-114.127403,2.19,41.88,-3.31,1134.81,125.84,4.212,-1.116,4.356,-0.35,-0.12,-0.32,0,-3.75,18.75,0.11252
2017-04-06T16:52:02Z,51.057777,-114.127398,2.25,5.12,-4,1134.06,-132.2,4.176,2.7,4.968,-0.01,1.06,0.17,0,1.55,18.75,0.11368
2017-04-06T16:52:03Z,51.057772,-114.1274,35.38,25.31,3.06,1133.25,21.98,2.052,2.916,3.564,-0.59,0.06,-0.39,0,0.7,18.75,0.11425
2017-04-06T16:52:04Z,51.05777,-114.127402,10.62,5.06,-5.31,1131.56,8,0.828,6.084,6.12,-0.34,0.88,0.71,0,0.14,18.75,0.11448
2017-04-06T16:52:05Z,51.057767,-114.12741,0.31,351.75,10.25,1131.31,-156.85,2.448,0.9,2.628,0.45,-1.44,-0.97,0,2.74,18.75,0.11516
2017-04-06T16:52:06Z,51.057765,-114.127415,2.75,343.12,11.44,1130.88,-166.73,1.368,1.584,2.088,-0.3,0.19,-0.15,0,0.87,18.75,0.11554
2017-04-06T16:52:08Z,51.057763,-114.12742,3.25,343.06,11.06,1130.81,-166.38,1.404,0.216,1.44,0.01,-0.38,-0.18,0,6.26,18.75,0.11593
2017-04-06T16:52:08Z,51.057763,-114.12742,3.56,342.62,10.88,1130.94,-166.67,0,-0.432,0.432,-0.39,-0.19,-0.27,0,0,18.75,0.11593
2017-04-06T16:52:10Z,51.057765,-114.127422,3.56,342.62,10.88,1130.56,-167.47,0.756,1.368,1.548,0.21,0.5,0.31,0,0.57,18.81,0.11614
2017-04-06T16:52:11Z,51.057765,-114.127425,3.38,342.62,10.81,1130.69,-170.17,0.828,-0.432,0.936,0.02,-0.5,-0.17,0,-1.86,18.81,0.11637
2017-04-06T16:52:12Z,51.057765,-114.127425,3.44,342.56,10.69,1130.19,-168.52,0,1.8,1.8,-0.23,0.62,0.24,0,0,18.81,0.11637
2017-04-06T16:52:13Z,51.057765,-114.127427,3.44,342.56,10.69,1130.38,-168.6,0.324,-0.684,0.756,0.09,-0.69,-0.29,0,-0.51,18.81,0.11646
2017-04-06T16:52:14Z,51.057767,-114.127427,3.44,342.56,10.69,1130.5,-168.71,0.576,-0.432,0.756,0.07,0.06,0,0,-1.32,18.81,0.11662
2017-04-06T16:52:15Z,51.057767,-114.127428,3.44,342.56,10.69,1129.94,-170.85,0.324,2.016,2.052,-0.07,0.69,0.36,0,0.17,18.88,0.11671
2017-04-06T16:52:16Z,51.057765,-114.12743,3.44,342.56,10.69,1130.62,-169.22,0.684,-2.484,2.556,0.09,-1.25,0.14,0,-0.28,18.81,0.1169
2017-04-06T16:52:17Z,51.057765,-114.12743,3.38,342.56,10.69,1130.19,-171.29,0,1.584,1.584,-0.19,1.12,-0.28,0,0,18.88,0.1169
2017-04-06T16:52:18Z,51.057763,-114.12743,3.44,342.56,10.62,1129.81,-171.21,0.684,1.368,1.512,0.19,-0.06,-0.02,0,0.51,18.88,0.11709
2017-04-06T16:52:19Z,51.057763,-114.127428,3.38,342.56,10.56,1130.19,-171.49,0.468,-1.368,1.44,-0.06,-0.75,-0.02,0,-0.36,18.88,0.11722
2017-04-06T16:52:20Z,51.057763,-114.127427,4.25,342.56,15.38,1129.56,-171.21,0.468,2.232,2.304,0,1,0.24,0,0.21,18.88,0.11735
2017-04-06T16:52:21Z,51.057762,-114.127412,4.62,339.31,15.94,1129.44,-169.68,3.852,0.432,3.852,0.93,-0.5,0.43,0,8.52,18.88,0.11842
2017-04-06T16:52:22Z,51.057763,-114.127382,5.12,337.56,15.88,1129.81,-169.98,7.596,-1.368,7.704,1.04,-0.5,1.07,0,-5.62,18.88,0.12053
2017-04-06T16:52:23Z,51.057767,-114.127328,5.44,337.69,16.12,1129.94,-170.43,13.464,-0.432,13.5,1.64,0.25,1.61,0,-29.96,18.94,0.12427
2017-04-06T16:52:24Z,51.057772,-114.127257,7.06,332.06,11.81,1130,-131.2,18.144,-0.216,18.144,1.29,0.06,1.29,0,-80.62,18.94,0.12931
2017-04-06T16:52:25Z,51.057775,-114.127158,8.69,330.56,11.25,1130.19,-128.84,24.768,-0.684,24.768,1.84,-0.12,1.85,0,-36.71,18.94,0.13619
2017-04-06T16:52:26Z,51.057782,-114.127035,8.69,331.62,10.62,1130.06,-129.9,31.14,0.432,31.14,1.77,0.31,1.77,0,69.21,18.94,0.14484
2017-04-06T16:52:27Z,51.05779,-114.126895,9.25,332.62,9.94,1129.81,-130.69,35.388,0.9,35.388,1.18,0.12,1.18,0,39.31,18.94,0.15467
2017-04-06T16:52:28Z,51.057797,-114.126748,9.81,333.19,10.06,1130.19,-129.07,37.008,-1.368,37.008,0.45,-0.62,0.45,0,-27.41,18.94,0.16495
2017-04-06T16:52:29Z,51.057803,-114.126597,9.56,334.12,9.94,1129.12,-129.07,38.268,3.816,38.448,0.35,1.44,0.39,0,10,19,0.17558
2017-04-06T16:52:30Z,51.057807,-114.126445,9.31,335.56,10.69,1129.88,-132.27,38.196,-2.7,38.268,-0.02,-1.81,-0.05,0,-14.14,19,0.18619
2017-04-06T16:52:31Z,51.057813,-114.126278,9.69,337.75,9.69,1129.5,-130.78,42.012,1.368,42.048,1.07,1.12,1.05,0,31.12,19,0.19786
2017-04-06T16:52:32Z,51.057817,-114.126117,8.81,338.81,9.75,1129.12,-131.36,40.68,1.368,40.716,-0.37,0,-0.37,0,30.14,19,0.20916
2017-04-06T16:52:33Z,51.057813,-114.12596,8,338.25,9.81,1129.25,-132.23,39.456,-0.432,39.456,-0.35,-0.5,-0.35,0,-87.64,19,0.22012
2017-04-06T16:52:34Z,51.057812,-114.125822,7.19,331.25,8.44,1128.56,-129.43,34.812,2.484,34.884,-1.29,0.81,-1.26,0,14.06,19,0.22979
2017-04-06T16:52:35Z,51.057818,-114.125713,9.62,309.94,8.12,1128.81,-124.97,27.396,-0.9,27.396,-2.06,-0.94,-2.08,0,-30.43,19,0.2374
2017-04-06T16:52:36Z,51.057843,-114.12562,8.56,283.06,8.75,1128.94,-121.71,25.524,-0.432,25.524,-0.52,0.12,-0.52,0,-56.73,19.06,0.24449
2017-04-06T16:52:37Z,51.057885,-114.12554,6.38,260.06,9.94,1129.06,-118.69,26.136,-0.432,26.136,0.17,0,0.17,0,-58.09,19.06,0.25175
2017-04-06T16:52:38Z,51.057957,-114.125475,4.81,248.5,11.19,1129,-117.34,33.012,0.216,33.012,1.91,0.19,1.91,0,146.76,19.06,0.26092
2017-04-06T16:52:39Z,51.058035,-114.125453,5.56,245.62,10.69,1128.44,-116.23,31.824,2.016,31.896,-0.33,0.5,-0.31,0,15.72,19.06,0.26976
2017-04-06T16:52:40Z,51.058127,-114.12544,6,245.25,10,1128.69,-118.9,36.828,-0.9,36.864,1.39,-0.81,1.38,0,-40.94,19.06,0.27999
2017-04-06T16:52:41Z,51.05823,-114.125438,5.62,246.38,9.62,1128.56,-117.35,41.364,0.432,41.364,1.26,0.38,1.25,0,91.92,19.06,0.29148
2017-04-06T16:52:42Z,51.058332,-114.125437,5,247.44,7.88,1126.69,-115.27,40.716,6.768,41.256,-0.19,1.75,-0.03,0,6.03,19.06,0.30279
2017-04-06T16:52:43Z,51.058427,-114.12543,4.12,247.69,5.81,1128.12,-120.21,38.052,-5.184,38.412,-0.73,-3.31,-0.79,0,-7.36,19.06,0.31336
2017-04-06T16:52:44Z,51.058505,-114.125423,3.5,247,5.12,1127.75,-114.98,31.392,1.368,31.428,-1.85,1.81,-1.94,0,23.26,19.06,0.32208
2017-04-06T16:52:45Z,51.058563,-114.125417,3.25,237.56,5.75,1127.25,-115.84,23.4,1.8,23.472,-2.22,0.12,-2.21,0,13,19.12,0.32858
2017-04-06T16:52:46Z,51.058608,-114.12542,3.31,209.12,7.81,1127.69,-118.88,18.036,-1.584,18.108,-1.49,-0.94,-1.49,0,-11.45,19.06,0.33359
2017-04-06T16:52:47Z,51.058652,-114.125447,6.25,176.81,9.56,1127.44,-126.24,18.612,0.9,18.612,0.16,0.69,0.14,0,20.67,19.12,0.33876
2017-04-06T16:52:48Z,51.058683,-114.125522,7.75,161,9.94,1128.31,-129.61,22.716,-3.168,22.932,1.15,-1.12,1.2,0,-7.22,19.12,0.34507
2017-04-06T16:52:49Z,51.05871,-114.125797,7.12,158.5,10.31,1128.44,-130.22,70.02,-0.432,70.02,13.13,0.75,13.07,0,-155.57,19.12,0.36452
2017-04-06T16:52:51Z,51.058713,-114.12597,6.69,156.94,10.06,1128.19,-130.29,43.632,0.9,43.632,-7.33,0.38,-7.32,0,48.48,19.12,0.37664
2017-04-06T16:52:52Z,51.058713,-114.126163,7.88,156.56,9.5,1128.94,-129.86,48.636,-2.7,48.708,1.39,-1,1.41,0,-18.01,19.12,0.39015
2017-04-06T16:52:53Z,51.058712,-114.126362,6,156.12,9,1128.62,-129.41,49.896,1.116,49.932,0.35,1.06,0.33,0,44.36,19.12,0.40401
2017-04-06T16:52:54Z,51.058707,-114.126553,5.88,155.62,9.62,1127.5,-130.75,48.276,4.032,48.42,-0.46,0.81,-0.41,0,11.92,19.19,0.41742
2017-04-06T16:52:55Z,51.058705,-114.12674,6.19,155.94,9.5,1128.44,-130.75,46.98,-3.384,47.088,-0.36,-2.06,-0.37,0,-13.92,19.12,0.43047
2017-04-06T16:52:56Z,51.0587,-114.12691,5.75,155.94,8.88,1128.44,-131.25,42.804,0,42.804,-1.15,0.94,-1.19,0,0,19.12,0.44236
2017-04-06T16:52:57Z,51.058702,-114.12707,5.56,155.31,6.62,1128.19,-130.75,40.248,0.9,40.284,-0.71,0.25,-0.71,0,44.73,19.19,0.45354
2017-04-06T16:52:58Z,51.0587,-114.127225,6.31,155.38,8.94,1128.38,-131.23,38.988,-0.684,39.024,-0.35,-0.44,-0.35,0,-57.78,19.19,0.46437
2017-04-06T16:52:59Z,51.058698,-114.127377,7.06,155.94,8.94,1127.69,-130.75,38.16,2.484,38.232,-0.23,0.88,-0.21,0,15.42,19.19,0.47497
2017-04-06T16:53:00Z,51.0587,-114.127513,6.25,159.44,8.5,1128.06,-129.22,34.38,-1.368,34.416,-1.05,-1.06,-1.06,0,-25.47,19.19,0.48452
2017-04-06T16:53:01Z,51.058705,-114.12763,5,163.94,8.38,1127.38,-127.7,29.412,2.484,29.52,-1.38,1.06,-1.36,0,11.89,19.19,0.49269
2017-04-06T16:53:02Z,51.058717,-114.127722,4.19,184.94,5.94,1127.5,-121.97,23.544,-0.432,23.544,-1.64,-0.81,-1.66,0,-52.29,19.19,0.49923
2017-04-06T16:53:03Z,51.058742,-114.127788,4.44,217.56,7.06,1126.56,-117.05,19.548,3.384,19.836,-1.11,1.06,-1.03,0,5.79,19.19,0.50466
2017-04-06T16:53:04Z,51.058785,-114.127827,5.25,237.38,6.31,1126.69,-114.23,19.836,-0.432,19.836,0.09,-1.06,0.01,0,-44.1,19.19,0.51017
2017-04-06T16:53:05Z,51.05884,-114.127845,5.75,240.81,6.5,1126.81,-112.07,22.5,-0.432,22.5,0.74,0,0.74,0,-49.99,19.19,0.51642
2017-04-06T16:53:06Z,51.058905,-114.12785,6.06,242.31,5.81,1127.44,-110.99,26.064,-2.232,26.136,0.99,-0.5,1.01,0,-11.58,19.19,0.52366
2017-04-06T16:53:07Z,51.05897,-114.127857,6.44,243.88,6.31,1128,-114.52,26.064,-2.016,26.136,0.01,0.06,0,0,-12.87,19.19,0.5309
2017-04-06T16:53:08Z,51.059037,-114.127858,6.44,244.88,6.44,1127.88,-112.65,26.676,0.432,26.676,0.17,0.69,0.15,0,59.3,19.25,0.53831
2017-04-06T16:53:09Z,51.059103,-114.12786,6.06,242.5,6.81,1128.44,-114.83,26.676,-2.016,26.784,0,-0.69,0.02,0,-13.18,19.25,0.54572
2017-04-06T16:53:10Z,51.059168,-114.127865,6.81,242.25,7.31,1128.25,-112.68,26.028,0.684,26.064,-0.18,0.75,-0.2,0,38.59,19.25,0.55295
2017-04-06T16:53:11Z,51.059235,-114.12787,7.5,243.06,8.12,1128.25,-116.07,26.712,0,26.712,0.19,-0.19,0.18,0,0,19.25,0.56037
2017-04-06T16:53:12Z,51.059303,-114.127875,8.12,245.44,8.88,1129.06,-116.93,27.396,-2.916,27.54,0.19,-0.81,0.23,0,-9.36,19.25,0.56798
2017-04-06T16:53:13Z,51.059372,-114.127877,7.88,245.81,9.19,1128.44,-117.76,27.36,2.232,27.432,-0.01,1.44,-0.02,0,12.16,19.25,0.57558
2017-04-06T16:53:14Z,51.05944,-114.127877,7.81,238.88,8.38,1130.12,-118.06,27.36,-6.084,28.008,0,-2.31,0.16,0,-4.5,19.25,0.58318
2017-04-06T16:53:15Z,51.059503,-114.127887,5.38,220.38,8.56,1129.06,-117.3,25.488,3.816,25.776,-0.52,2.75,-0.63,0,6.66,19.25,0.59026
2017-04-06T16:53:16Z,51.059557,-114.127918,5.19,187.69,9.62,1129.38,-123.06,22.788,-1.116,22.824,-0.75,-1.38,-0.82,0,-20.25,19.25,0.59659
2017-04-06T16:53:17Z,51.059592,-114.127983,5.12,170.44,9.38,1130.5,-129.46,21.528,-4.032,21.924,-0.35,-0.81,-0.25,0,-5.32,19.25,0.60257
2017-04-06T16:53:18Z,51.059608,-114.128047,5.19,167.25,4.69,1130.06,-131.82,17.28,1.584,17.352,-1.18,1.56,-1.27,0,10.97,19.25,0.60737
2017-04-06T16:53:19Z,51.05961,-114.128068,6.38,167.25,4.62,1130.19,-126.85,5.472,-0.432,5.508,-3.27,-0.56,-3.29,0,-12.2,19.31,0.60889
2017-04-06T16:53:20Z,51.05961,-114.128068,6,162.12,3.75,1129.94,-126.58,0,0.9,0.9,-1.52,0.38,-1.28,0,0,19.31,0.60889
2017-04-06T16:53:21Z,51.059607,-114.128053,8.88,139.56,1.19,1130.38,-137.95,3.996,-1.584,4.284,1.11,-0.69,0.94,0,-2.53,19.31,0.61
2017-04-06T16:53:22Z,51.059605,-114.128025,8.75,138.62,3.44,1130.56,-144.13,7.164,-0.684,7.2,0.88,0.25,0.81,0,-10.6,19.31,0.61199
2017-04-06T16:53:23Z,51.05961,-114.127997,8.06,150.94,4.69,1130.31,-136.9,7.416,0.9,7.452,0.07,0.44,0.08,0,8.23,19.31,0.61405
2017-04-06T16:53:24Z,51.059613,-114.127972,8.5,154.44,5.69,1130.88,-135.39,6.444,-2.016,6.732,-0.27,-0.81,-0.2,0,-3.18,19.31,0.61584
2017-04-06T16:53:25Z,51.059615,-114.127948,8.88,155.62,6.88,1130.25,-136.97,5.904,2.232,6.3,-0.15,1.19,-0.12,0,2.62,19.31,0.61748
2017-04-06T16:53:26Z,51.059615,-114.127933,9.12,155.94,6.75,1129.94,-134.57,3.744,1.116,3.924,-0.59,-0.31,-0.66,0,3.34,19.38,0.61852
2017-04-06T16:53:27Z,51.059617,-114.127922,9.75,156.25,8.75,1130.56,-135.06,3.024,-2.232,3.78,-0.21,-0.94,-0.04,0,-1.34,19.31,0.61936
2017-04-06T16:53:28Z,51.059617,-114.127912,11.44,154.69,15.5,1130.69,-135.81,2.52,-0.432,2.592,-0.13,0.5,-0.33,0,-5.63,19.38,0.62006
2017-04-06T16:53:29Z,51.059617,-114.127925,12.62,150.5,14.94,1130.94,-135.5,3.384,-0.9,3.492,0.24,-0.12,0.26,0,-3.76,19.38,0.621
2017-04-06T16:53:30Z,51.059615,-114.127968,12.06,153.75,16,1131.19,-133.39,10.908,-0.9,10.944,2.09,0,2.07,0,-12.13,19.38,0.62403
2017-04-06T16:53:31Z,51.05961,-114.128053,10.25,155.25,15.38,1131.56,-133.1,21.492,-1.368,21.528,2.93,-0.12,2.93,0,-15.91,19.38,0.63
2017-04-06T16:53:32Z,51.059608,-114.128345,9.69,155.12,14.75,1131.75,-133.07,73.368,-0.684,73.368,14.42,0.19,14.41,0,-108.71,19.38,0.65038
2017-04-06T16:53:34Z,51.059607,-114.128527,9.75,154.25,12.69,1131.25,-134.93,45.72,1.8,45.756,-7.69,0.69,-7.68,0,25.39,19.38,0.66308
2017-04-06T16:53:35Z,51.059605,-114.128705,10.38,154.44,11.75,1131.12,-134.17,44.856,0.432,44.856,-0.23,-0.38,-0.24,0,99.71,19.38,0.67554
2017-04-06T16:53:36Z,51.059605,-114.128877,9.38,154.75,10.38,1131.38,-132.68,43.2,-0.9,43.2,-0.47,-0.38,-0.47,0,-47.99,19.38,0.68754
2017-04-06T16:53:37Z,51.059605,-114.129035,8.44,155.94,9,1130.94,-132.49,39.852,1.584,39.852,-0.93,0.69,-0.93,0,25.29,19.38,0.69861
2017-04-06T16:53:38Z,51.059607,-114.129163,6.56,155.69,1.75,1130.38,-133.78,32.292,2.016,32.364,-2.1,0.12,-2.09,0,15.95,19.38,0.70758
2017-04-06T16:53:39Z,51.05961,-114.129262,6.88,162.19,1.44,1129.94,-130.69,24.768,1.584,24.804,-2.09,-0.12,-2.09,0,15.73,19.38,0.71446
2017-04-06T16:53:40Z,51.059617,-114.129335,7.06,173.06,-2.62,1129.81,-127.51,18.648,0.432,18.648,-1.7,-0.31,-1.71,0,41.43,19.38,0.71964
2017-04-06T16:53:41Z,51.059627,-114.12937,7.19,178.38,-1.69,1129.12,-125.36,9.684,2.484,9.972,-2.49,0.56,-2.41,0,3.91,19.44,0.72233
2017-04-06T16:53:42Z,51.059632,-114.129387,6.56,180,0.44,1129.38,-124.65,4.644,-0.9,4.716,-1.4,-0.94,-1.46,0,-5.15,19.44,0.72362
2017-04-06T16:53:43Z,51.059633,-114.129393,6.56,180.75,3.06,1129.25,-126.03,1.8,0.432,1.872,-0.79,0.38,-0.79,0,4.02,19.44,0.72412
2017-04-06T16:53:44Z,51.059635,-114.129397,6.69,181,3.94,1129.25,-126.03,1.008,0,1.008,-0.22,-0.12,-0.23,0,0,19.44,0.7244
2017-04-06T16:53:45Z,51.059637,-114.1294,6.75,181.19,5.19,1129.25,-126.34,1.08,0,1.08,0.02,0,0.02,0,0,19.44,0.7247
2017-04-06T16:53:46Z,51.059637,-114.129402,6.69,181.19,5.38,1129.56,-124.88,0.468,-1.116,1.224,-0.17,-0.31,0.04,0,-0.43,19.44,0.72483
2017-04-06T16:53:47Z,51.059638,-114.129402,6.75,181.19,5.62,1129.44,-125.93,0.684,0.432,0.828,0.06,0.44,-0.11,0,1.52,19.44,0.72502
2017-04-06T16:53:48Z,51.059638,-114.129403,6.81,181.19,5.75,1129,-126.05,0.468,1.584,1.656,-0.06,0.31,0.23,0,0.31,19.44,0.72515
2017-04-06T16:53:49Z,51.05964,-114.129402,6.75,181.19,5.88,1128.94,-127.02,0.828,0.216,0.864,0.1,-0.38,-0.22,0,3.72,19.44,0.72538
2017-04-06T16:53:50Z,51.05964,-114.129402,6.81,181.19,5.88,1129.5,-125.67,0,-2.016,2.016,-0.23,-0.62,0.32,0,0,19.44,0.72538
2017-04-06T16:53:51Z,51.059642,-114.129402,6.75,181.19,6.06,1129,-126.34,0.684,1.8,1.908,0.19,1.06,-0.03,0,0.38,19.44,0.72557
2017-04-06T16:53:52Z,51.059642,-114.129403,7.06,181.62,7.12,1129.12,-126.06,0.468,-0.432,0.648,-0.06,-0.62,-0.35,0,-1.07,19.44,0.7257
2017-04-06T16:53:53Z,51.059643,-114.129408,7.81,183.38,9.06,1129.44,-125.01,1.44,-1.116,1.836,0.27,-0.19,0.33,0,-1.29,19.44,0.7261
2017-04-06T16:53:54Z,51.059647,-114.12942,12.31,190.25,15.19,1130,-124.89,3.24,-2.016,3.816,0.5,-0.25,0.55,0,-1.6,19.44,0.727
2017-04-06T16:53:55Z,51.059662,-114.129447,9.62,211.25,17.44,1129.19,-120.72,9,2.916,9.468,1.6,1.38,1.57,0,3.08,19.44,0.7295
2017-04-06T16:53:56Z,51.059697,-114.129478,5.31,234.81,17.94,1129.94,-116.85,16.128,-2.7,16.344,1.97,-1.56,1.91,0,-5.97,19.44,0.73398
2017-04-06T16:53:57Z,51.05976,-114.129503,4.81,242.5,17.94,1130.88,-114.96,26.136,-3.384,26.352,2.78,-0.19,2.78,0,-7.74,19.44,0.74124
2017-04-06T16:53:58Z,51.059865,-114.129507,5.62,243.88,18.69,1132.25,-117.85,42.048,-4.968,42.336,4.42,-0.44,4.44,0,-8.49,19.44,0.75292
2017-04-06T16:53:59Z,51.060002,-114.129507,7,241.56,18.12,1133.31,-117.65,54.72,-3.816,54.828,3.52,0.31,3.47,0,-14.3,19.5,0.76812
2017-04-06T16:54:00Z,51.060148,-114.129515,7.75,236.25,17.75,1134.75,-117.16,58.752,-5.184,58.968,1.12,-0.38,1.15,0,-11.35,19.5,0.78444
2017-04-06T16:54:01Z,51.060288,-114.129538,8.69,230.81,17.69,1135.81,-117.02,56.34,-3.816,56.484,-0.67,0.38,-0.69,0,-14.73,19.5,0.80009
2017-04-06T16:54:02Z,51.060422,-114.129578,8.56,225.69,17.56,1136.94,-120.07,54.324,-4.032,54.468,-0.57,-0.06,-0.56,0,-13.41,19.5,0.81518
2017-04-06T16:54:03Z,51.060548,-114.129635,8.5,219.75,18.19,1137.81,-122.26,52.668,-3.168,52.776,-0.46,0.25,-0.47,0,-16.72,19.5,0.82981
2017-04-06T16:54:04Z,51.060677,-114.129713,9.81,211.5,17.19,1139.38,-119.84,55.008,-5.616,55.296,0.65,-0.69,0.71,0,-9.78,19.5,0.84509
2017-04-06T16:54:05Z,51.060805,-114.12982,9.44,205.56,16.62,1140.69,-120.51,57.96,-4.716,58.14,0.82,0.25,0.79,0,-12.27,19.5,0.86119
2017-04-06T16:54:06Z,51.060925,-114.12995,8.31,202.38,17.56,1142.31,-122.91,58.104,-5.832,58.392,0.04,-0.31,0.07,0,-9.93,19.5,0.87733
2017-04-06T16:54:07Z,51.061043,-114.130103,7.81,202.5,18.19,1144.12,-121.85,61.092,-6.516,61.416,0.83,-0.19,0.84,0,-9.36,19.5,0.8943
2017-04-06T16:54:08Z,51.06117,-114.130275,6.81,203,18.56,1146.19,-123.66,66.6,-7.416,67.032,1.53,-0.25,1.55,0,-8.97,19.5,0.9128
2017-04-06T16:54:09Z,51.061302,-114.13045,8.06,208.75,19.19,1147.94,-121.81,68.688,-6.3,68.976,0.58,0.31,0.54,0,-10.9,19.5,0.93188
2017-04-06T16:54:10Z,51.061433,-114.13061,6.88,216.69,19.31,1149.69,-122.42,66.312,-6.3,66.6,-0.65,0,-0.65,0,-10.53,19.5,0.9503
2017-04-06T16:54:11Z,51.06157,-114.130742,5.44,225.12,20.06,1150.62,-117.37,63.936,-3.384,64.044,-0.66,0.81,-0.72,0,-18.95,19.5,0.96806
2017-04-06T16:54:12Z,51.061718,-114.130837,3.94,232.19,19.44,1150.75,-118.41,64.008,-0.432,64.008,0.01,0.81,-0.01,0,-142.23,19.5,0.98584
2017-04-06T16:54:13Z,51.061875,-114.130905,3.38,238.75,18.88,1152.75,-120.86,65.016,-7.2,65.412,0.28,-1.88,0.39,0,-9.03,19.5,1.0039
2017-04-06T16:54:14Z,51.062032,-114.130942,3.25,241.44,18.38,1154.62,-117.73,63.396,-6.768,63.756,-0.46,0.12,-0.47,0,-9.39,19.56,1.02151
2017-04-06T16:54:16Z,51.062333,-114.130967,3.5,241.5,18.5,1155.88,-118.74,120.924,-4.5,120.996,15.98,0.62,15.9,0,-26.87,19.5,1.0551
2017-04-06T16:54:17Z,51.062483,-114.130977,3.69,241.25,18.5,1158.12,-115.73,60.084,-8.1,60.624,-16.89,-1,-16.77,0,-7.42,19.5,1.07179
2017-04-06T16:54:18Z,51.062633,-114.130987,3.88,241,18.31,1159.06,-117.39,60.084,-3.384,60.192,0,1.31,-0.12,0,-17.81,19.5,1.08848
2017-04-06T16:54:19Z,51.062785,-114.130998,4.12,240.75,18.38,1161.81,-115.97,60.768,-9.9,61.596,0.19,-1.81,0.39,0,-6.14,19.56,1.10536
2017-04-06T16:54:20Z,51.062938,-114.131008,4.06,241.19,17.5,1163.06,-114.71,61.416,-4.5,61.596,0.18,1.5,0,0,-13.65,19.56,1.12242
2017-04-06T16:54:21Z,51.063093,-114.131017,3.62,242.25,16.81,1163.94,-115.43,62.064,-3.168,62.172,0.18,0.38,0.16,0,-19.71,19.5,1.13966
2017-04-06T16:54:22Z,51.063247,-114.131022,3.12,242.94,15.81,1164.19,-112.85,61.38,-0.9,61.38,-0.19,0.62,-0.21,0,-68.21,19.56,1.15671
2017-04-06T16:54:23Z,51.063402,-114.131022,1.88,244.25,15,1166.69,-109.42,62.028,-9,62.676,0.18,-2.25,0.36,0,-6.89,19.5,1.17394
2017-04-06T16:54:24Z,51.063557,-114.131015,1.81,246.25,13.06,1167.62,-106.43,62.064,-3.384,62.172,0.01,1.56,-0.15,0,-18.39,19.56,1.19118
2017-04-06T16:54:25Z,51.06371,-114.131002,2.12,248.56,11.69,1167.94,-104.69,61.452,-1.116,61.488,-0.17,0.62,-0.19,0,-54.64,19.56,1.20825
2017-04-06T16:54:26Z,51.063862,-114.130977,-0.31,251.06,11,1168.44,-102.36,61.02,-1.8,61.056,-0.12,-0.19,-0.12,0,-33.91,19.56,1.2252
2017-04-06T16:54:27Z,51.064013,-114.130943,-1.12,254.44,10.62,1167.38,-98.98,61.272,3.816,61.416,0.07,1.56,0.1,0,16.02,19.56,1.24222
2017-04-06T16:54:28Z,51.064157,-114.1309,-0.81,257.31,9.62,1167.38,-98.5,58.392,0,58.392,-0.8,-1.06,-0.83,0,0,19.56,1.25844
2017-04-06T16:54:29Z,51.064293,-114.130847,-0.88,258.81,10.19,1167.06,-100.48,56.34,1.116,56.34,-0.58,0.31,-0.57,0,50.07,19.56,1.27409
2017-04-06T16:54:30Z,51.064428,-114.130787,0,260.88,10.06,1166.19,-106.44,56.124,3.168,56.196,-0.06,0.56,-0.04,0,17.81,19.56,1.28968
2017-04-06T16:54:31Z,51.064562,-114.130722,0.62,264.69,9.88,1167.31,-102.08,55.836,-4.032,55.98,-0.08,-2,-0.06,0,-13.78,19.56,1.30519
2017-04-06T16:54:32Z,51.064693,-114.130642,-0.19,267.62,9.06,1165.62,-96.87,56.412,6.084,56.736,0.17,2.81,0.22,0,9.29,19.56,1.32086
2017-04-06T16:54:33Z,51.064827,-114.130547,-2.12,270.44,10.5,1165.44,-105.74,58.464,0.684,58.464,0.57,-1.5,0.48,0,86.63,19.56,1.3371
2017-04-06T16:54:34Z,51.06496,-114.130443,-0.75,272.56,9.75,1167.19,-100.83,59.364,-6.3,59.688,0.25,-1.94,0.34,0,-9.42,19.56,1.35359
2017-04-06T16:54:35Z,51.065092,-114.130323,0.94,274.38,9.12,1167.38,-104.28,60.732,-0.684,60.732,0.38,1.56,0.29,0,-89.98,19.56,1.37046
2017-04-06T16:54:36Z,51.065225,-114.130195,0.19,275.12,8.69,1167.38,-109.37,62.388,0,62.388,0.46,0.19,0.45,0,0,19.62,1.38779
2017-04-06T16:54:37Z,51.06536,-114.13006,1.06,274.62,8.62,1167.62,-102.4,63.828,-0.9,63.828,0.4,-0.25,0.4,0,-70.92,19.56,1.40552
2017-04-06T16:54:38Z,51.065493,-114.129925,2.69,273.81,8.75,1167.62,-106.7,63.252,0,63.252,-0.16,0.25,-0.16,0,0,19.56,1.42309
2017-04-06T16:54:39Z,51.065627,-114.129793,4,272.44,7.81,1166.69,-103.59,62.82,3.384,62.892,-0.12,0.94,-0.1,0,18.61,19.56,1.44054
2017-04-06T16:54:40Z,51.065755,-114.12967,4.62,270.81,7.44,1165.81,-96.67,60.012,3.168,60.084,-0.78,-0.06,-0.78,0,19.05,19.62,1.45721
2017-04-06T16:54:41Z,51.065882,-114.129558,4,268.31,8,1166.31,-104.31,57.96,-1.8,57.996,-0.57,-1.38,-0.58,0,-32.2,19.62,1.47331
2017-04-06T16:54:42Z,51.066007,-114.129452,4,264.31,7.88,1166.25,-100.74,56.772,0.216,56.772,-0.33,0.56,-0.34,0,252.34,19.62,1.48908
2017-04-06T16:54:43Z,51.066132,-114.129363,3.69,259.38,8.38,1166.06,-97.66,54.756,0.684,54.756,-0.56,0.12,-0.56,0,81.11,19.62,1.50429
2017-04-06T16:54:44Z,51.066257,-114.129293,4.31,255.38,8.56,1166.25,-103.35,53.028,-0.684,53.064,-0.47,-0.38,-0.47,0,-78.58,19.62,1.51902
2017-04-06T16:54:45Z,51.066383,-114.129235,5,251.19,8.38,1165.94,-98.96,52.776,1.116,52.812,-0.07,0.5,-0.07,0,46.92,19.62,1.53368
2017-04-06T16:54:46Z,51.066515,-114.129192,5.62,247.94,8.38,1165.5,-103.67,53.82,1.584,53.856,0.29,0.12,0.29,0,34.17,19.62,1.54863
2017-04-06T16:54:47Z,51.06665,-114.129162,5.19,244.5,8.62,1164.88,-99.3,54.576,2.232,54.612,0.21,0.19,0.21,0,24.25,19.62,1.56379
2017-04-06T16:54:49Z,51.06693,-114.12914,3.44,243.75,8.88,1165.62,-98.02,112.212,-2.7,112.248,16.01,-1.38,16.01,0,-41.56,19.62,1.59496
2017-04-06T16:54:50Z,51.067075,-114.129132,1.19,244.06,9.25,1165.75,-98.97,58.068,-0.432,58.068,-15.04,0.62,-15.05,0,-129.07,19.62,1.61109
2017-04-06T16:54:51Z,51.067218,-114.129123,0.94,244.5,9.88,1165.62,-103.63,57.42,0.432,57.42,-0.19,0.25,-0.19,0,127.58,19.62,1.62704
2017-04-06T16:54:52Z,51.067362,-114.129117,0.75,243.88,9.69,1165.5,-104.04,57.384,0.432,57.384,0,0,0,0,127.55,19.62,1.64298
2017-04-06T16:54:53Z,51.067502,-114.129112,0.19,243.06,9.75,1165.12,-102.18,56.052,1.368,56.052,-0.37,0.25,-0.37,0,41.52,19.62,1.65855
2017-04-06T16:54:54Z,51.06764,-114.129108,1.06,242.81,10.12,1165.25,-105.3,55.368,-0.432,55.368,-0.19,-0.5,-0.19,0,-123.07,19.62,1.67393
2017-04-06T16:54:55Z,51.067775,-114.129108,1.44,242.44,9.88,1164.69,-107.4,54.036,2.016,54.072,-0.37,0.69,-0.36,0,26.69,19.62,1.68894
2017-04-06T16:54:56Z,51.067903,-114.129108,2.19,243.25,9.62,1165,-105.61,51.372,-1.116,51.372,-0.74,-0.88,-0.75,0,-45.66,19.62,1.70321
2017-04-06T16:54:57Z,51.068023,-114.1291,1.75,251.88,9.12,1164.5,-106.78,48.096,1.8,48.096,-0.91,0.81,-0.91,0,26.71,19.62,1.71657
2017-04-06T16:54:58Z,51.068133,-114.129063,1.38,266.94,7.88,1164.94,-99.23,45,-1.584,45,-0.86,-0.94,-0.86,0,-28.56,19.69,1.72907
2017-04-06T16:54:59Z,51.068232,-114.128987,1.88,284.31,6.19,1165.38,-94.7,43.848,-1.584,43.848,-0.32,0,-0.32,0,-27.83,19.62,1.74125
2017-04-06T16:55:00Z,51.068315,-114.128865,1.62,298.5,5.12,1164.94,-108.1,45.252,1.584,45.288,0.4,0.88,0.4,0,28.74,19.62,1.75382
2017-04-06T16:55:01Z,51.068377,-114.128713,1.75,315.5,5.56,1165.19,143.29,45.432,-0.9,45.432,0.05,-0.69,0.04,0,-50.49,19.62,1.76644
2017-04-06T16:55:02Z,51.068412,-114.128527,2.25,328.88,3.56,1165.12,147.99,48.996,0.216,48.996,0.99,0.31,0.99,0,217.77,19.69,1.78005
2017-04-06T16:55:03Z,51.06842,-114.128333,1.81,332.25,3.12,1164.88,155.13,48.744,0.9,48.744,-0.07,0.19,-0.07,0,54.16,19.69,1.79359
2017-04-06T16:55:04Z,51.06842,-114.128137,2.06,332.31,3.44,1165.19,142.57,49.464,-1.116,49.464,0.2,-0.56,0.2,0,-43.97,19.69,1.80733
2017-04-06T16:55:05Z,51.068418,-114.127938,1.69,331.19,3.81,1164.94,137.54,49.896,0.9,49.896,0.12,0.56,0.12,0,55.43,19.69,1.82119
2017-04-06T16:55:06Z,51.068422,-114.127742,2.38,330.12,3.62,1164.69,139.99,49.5,0.9,49.5,-0.11,0,-0.11,0,54.99,19.69,1.83494
2017-04-06T16:55:07Z,51.068425,-114.127545,2.31,330.62,4.12,1164.56,137.97,49.5,0.432,49.5,0,-0.12,0,0,109.97,19.69,1.84869
2017-04-06T16:55:08Z,51.068428,-114.127335,3.25,330.31,5.44,1165.19,135.93,52.848,-2.232,52.884,0.93,-0.75,0.94,0,-23.48,19.69,1.86337
2017-04-06T16:55:09Z,51.068432,-114.127105,4.75,332.88,4.75,1164.56,134.19,57.852,2.232,57.924,1.4,1.25,1.4,0,25.72,19.69,1.87944
2017-04-06T16:55:10Z,51.06843,-114.126863,4.94,337.88,4.25,1164.88,133.2,60.804,-1.116,60.804,0.81,-0.94,0.8,0,-54.04,19.69,1.89633
2017-04-06T16:55:11Z,51.068418,-114.126605,4.88,340.94,4.56,1164.88,140.83,65.16,0,65.16,1.21,0.31,1.21,0,0,19.75,1.91443
2017-04-06T16:55:12Z,51.068392,-114.126342,5.19,342.38,4.75,1165.12,137.6,67.104,-0.9,67.104,0.54,-0.25,0.54,0,-74.55,19.69,1.93307
2017-04-06T16:55:13Z,51.068362,-114.126068,5.25,342.69,4.5,1164.38,143.97,69.804,2.7,69.84,0.75,1,0.76,0,25.85,19.75,1.95246
2017-04-06T16:55:14Z,51.068327,-114.125785,5.62,344.19,4.25,1164.75,140.71,72.648,-1.368,72.648,0.79,-1.12,0.78,0,-53.8,19.75,1.97264
2017-04-06T16:55:15Z,51.068288,-114.125498,5.81,345.19,4.06,1165.5,132.44,73.728,-2.7,73.764,0.3,-0.38,0.31,0,-27.3,19.69,1.99312
2017-04-06T16:55:16Z,51.068245,-114.125215,5.81,346.31,4,1163.88,140.19,73.332,5.832,73.584,-0.1,2.38,-0.05,0,12.54,19.75,2.01349
2017-04-06T16:55:17Z,51.068202,-114.124933,5.94,347.56,3.88,1163.94,144.15,72.936,-0.216,72.936,-0.11,-1.69,-0.18,0,-324.19,19.75,2.03375
2017-04-06T16:55:18Z,51.068152,-114.124652,5.75,348.38,3.88,1163.56,150.3,73.62,1.368,73.62,0.19,0.44,0.19,0,54.53,19.75,2.0542
2017-04-06T16:55:19Z,51.0681,-114.124375,6.19,349.56,3.5,1163.5,146.89,72.612,0.216,72.612,-0.28,-0.31,-0.29,0,322.66,19.75,2.07437
2017-04-06T16:55:20Z,51.068047,-114.124105,5.69,350.75,3.25,1163.38,142.62,71.208,0.432,71.208,-0.39,0.06,-0.39,0,158.2,19.75,2.09415
2017-04-06T16:55:21Z,51.067992,-114.123845,5.81,350.88,3.38,1163.44,145.12,69.012,-0.216,69.012,-0.61,-0.19,-0.61,0,-306.7,19.75,2.11332
2017-04-06T16:55:22Z,51.067935,-114.123587,6.25,350.94,3.12,1162.81,129.23,68.832,2.232,68.868,-0.05,0.69,-0.04,0,30.59,19.75,2.13244
2017-04-06T16:55:23Z,51.067877,-114.123325,6.25,351,3.25,1162.75,78.31,69.84,0.216,69.84,0.28,-0.56,0.27,0,310.4,19.75,2.15184
2017-04-06T16:55:24Z,51.067818,-114.123063,5.81,351.19,3.62,1162.06,149.49,69.84,2.484,69.876,0,0.62,0.01,0,28.22,19.75,2.17124
2017-04-06T16:55:25Z,51.067758,-114.122802,5.81,351.25,3.62,1162.69,132.77,70.056,-2.232,70.092,0.06,-1.31,0.06,0,-31.14,19.75,2.1907
2017-04-06T16:55:26Z,51.0677,-114.122538,5.88,350.88,3.5,1162.75,125.54,70.236,-0.216,70.236,0.05,0.56,0.04,0,-312.15,19.75,2.21021
2017-04-06T16:55:27Z,51.06764,-114.122273,6.12,351,3.38,1162.56,-179.89,70.848,0.684,70.848,0.17,0.25,0.17,0,104.97,19.75,2.22989
2017-04-06T16:55:28Z,51.06758,-114.122005,3.81,351.12,4.56,1162.69,159.44,71.64,-0.432,71.64,0.22,-0.31,0.22,0,-159.2,19.75,2.24979
2017-04-06T16:55:29Z,51.067458,-114.121463,4.56,351.12,4.62,1162.25,158.76,144.684,1.584,144.684,20.29,0.56,20.29,0,91.87,19.81,2.28998
2017-04-06T16:55:31Z,51.067397,-114.12119,6.38,351.19,4.12,1162.56,144.73,73.044,-1.116,73.044,-19.9,-0.75,-19.9,0,-64.93,19.81,2.31027
2017-04-06T16:55:32Z,51.067337,-114.12092,7.56,350.94,4.25,1162.75,146.15,72.036,-0.684,72.036,-0.28,0.12,-0.28,0,-106.72,19.81,2.33028
2017-04-06T16:55:33Z,51.067278,-114.120653,7.94,350.69,4.94,1163.12,139.4,71.028,-1.368,71.028,-0.28,-0.19,-0.28,0,-52.61,19.81,2.35001
2017-04-06T16:55:34Z,51.067222,-114.120392,8,350.06,5.62,1164.06,141.98,69.624,-3.384,69.696,-0.39,-0.56,-0.37,0,-20.63,19.81,2.36935
2017-04-06T16:55:35Z,51.06717,-114.120133,7.5,348.5,6.12,1164.06,143.33,68.184,0,68.184,-0.4,0.94,-0.42,0,0,19.81,2.38829
2017-04-06T16:55:36Z,51.067125,-114.119877,7.62,346,5.94,1164.56,143.64,67.032,-1.8,67.068,-0.32,-0.5,-0.32,0,-37.24,19.81,2.40691
2017-04-06T16:55:37Z,51.067087,-114.119623,7.56,344.12,5.94,1165.19,146.72,65.556,-2.232,65.592,-0.41,-0.12,-0.41,0,-29.13,19.81,2.42512
2017-04-06T16:55:38Z,51.067053,-114.119375,7.31,341.81,6.06,1166.25,143.25,63.864,-3.816,63.972,-0.46,-0.44,-0.44,0,-16.7,19.81,2.44286
2017-04-06T16:55:39Z,51.067028,-114.119127,6.5,339.62,6,1166.88,142.32,63.252,-2.232,63.288,-0.17,0.44,-0.19,0,-28.12,19.81,2.46043
2017-04-06T16:55:40Z,51.067005,-114.118878,5.56,337.75,5.88,1167.44,134.54,63.144,-2.016,63.18,-0.03,0.06,-0.03,0,-31.19,19.81,2.47797
2017-04-06T16:55:41Z,51.066988,-114.118632,3.06,335.75,5.25,1166.94,132.67,62.388,1.8,62.424,-0.21,1.06,-0.21,0,34.67,19.81,2.4953
2017-04-06T16:55:42Z,51.066977,-114.118397,2.19,333.5,4.81,1167.88,155.11,59.292,-3.384,59.4,-0.86,-1.44,-0.84,0,-17.57,19.81,2.51177
2017-04-06T16:55:43Z,51.066973,-114.118182,2.31,332.81,4.81,1167.75,115.53,54.108,0.432,54.108,-1.44,1.06,-1.47,0,120.22,19.81,2.5268
2017-04-06T16:55:44Z,51.066972,-114.117975,1.94,332.25,4.75,1167.25,157.77,51.984,1.8,52.02,-0.59,0.38,-0.58,0,28.88,19.81,2.54124
2017-04-06T16:55:45Z,51.066973,-114.117782,2.31,331.94,4.94,1167.44,62.72,48.636,-0.684,48.636,-0.93,-0.69,-0.94,0,-72.05,19.81,2.55475
2017-04-06T16:55:46Z,51.066972,-114.117592,2.62,332,4.38,1167.44,156.54,47.808,0,47.808,-0.23,0.19,-0.23,0,0,19.81,2.56803
2017-04-06T16:55:47Z,51.066972,-114.117403,3.06,331.94,5.94,1167.69,169.01,47.376,-0.9,47.376,-0.12,-0.25,-0.12,0,-52.64,19.81,2.58119
2017-04-06T16:55:48Z,51.066972,-114.117215,3.56,331.88,6,1167.38,147.59,47.376,1.116,47.376,0,0.56,0,0,42.11,19.88,2.59435
2017-04-06T16:55:49Z,51.066972,-114.117022,4.06,331.81,5.94,1167.44,155.66,48.636,-0.216,48.636,0.35,-0.38,0.35,0,-216.14,19.88,2.60786
2017-04-06T16:55:50Z,51.066972,-114.116827,4.44,331.94,5.75,1167.88,152.61,49.068,-1.584,49.068,0.12,-0.38,0.12,0,-31.14,19.88,2.62149
2017-04-06T16:55:51Z,51.066973,-114.116632,4.62,332.06,5.5,1167.81,149.2,49.068,0.216,49.068,0,0.5,-0.01,0,218.02,19.88,2.63512
2017-04-06T16:55:52Z,51.066973,-114.116442,5.06,332.06,6.19,1167.62,138.43,47.808,0.684,47.808,-0.35,0.12,-0.35,0,70.81,19.88,2.6484
2017-04-06T16:55:53Z,51.066973,-114.11625,5.12,332.06,6.88,1167.81,147.94,48.204,-0.684,48.204,0.12,-0.38,0.12,0,-71.43,19.88,2.66179
2017-04-06T16:55:54Z,51.066973,-114.116052,5.38,332,6.94,1167.81,158.96,49.896,0,49.896,0.47,0.19,0.46,0,0,19.88,2.67565
2017-04-06T16:55:55Z,51.066973,-114.115848,5.62,332,7.75,1168.19,175.01,51.156,-1.368,51.156,0.35,-0.38,0.35,0,-37.89,19.88,2.68986
2017-04-06T16:55:56Z,51.066975,-114.11564,5.5,332.06,7.19,1168.75,141.05,52.416,-2.016,52.452,0.35,-0.19,0.36,0,-25.88,19.88,2.70442
2017-04-06T16:55:57Z,51.066975,-114.115423,6.44,332.06,7.25,1168.94,139.11,54.504,-0.684,54.504,0.58,0.38,0.57,0,-80.74,19.88,2.71956
2017-04-06T16:55:58Z,51.066977,-114.1152,5.94,332,7,1168.75,150.59,56.196,0.684,56.196,0.47,0.38,0.47,0,83.23,19.88,2.73517
2017-04-06T16:55:59Z,51.066977,-114.114973,5.81,332.06,7.25,1169.06,154.63,57.024,-1.116,57.024,0.23,-0.5,0.23,0,-50.68,19.88,2.75101
2017-04-06T16:56:00Z,51.066977,-114.114742,5.56,332,7.31,1168.94,153.43,58.284,0.432,58.284,0.35,0.44,0.35,0,129.5,19.88,2.7672
2017-04-06T16:56:01Z,51.066978,-114.114508,5.31,332,7.06,1169.38,153.63,58.68,-1.584,58.716,0.12,-0.56,0.12,0,-37.27,19.88,2.7835
2017-04-06T16:56:02Z,51.066978,-114.114273,4.88,332.06,7.19,1169.31,145.37,59.112,0.216,59.112,0.12,0.5,0.11,0,262.72,19.88,2.79992
2017-04-06T16:56:03Z,51.066978,-114.114042,4.81,331.94,6.75,1169.38,160.75,58.284,-0.216,58.284,-0.23,-0.12,-0.23,0,-258.99,19.88,2.81611
2017-04-06T16:56:04Z,51.06698,-114.113815,4.88,331.88,6.38,1169.44,147.41,57.024,-0.216,57.024,-0.35,0,-0.35,0,-253.42,19.88,2.83195
2017-04-06T16:56:05Z,51.06698,-114.113593,5,331.94,6.44,1169.56,157.31,55.764,-0.432,55.764,-0.35,-0.06,-0.35,0,-123.91,19.88,2.84744
2017-04-06T16:56:06Z,51.066982,-114.113372,4.81,331.94,6.44,1169.88,153.63,55.764,-1.116,55.764,0,-0.19,0,0,-49.57,19.88,2.86293
2017-04-06T16:56:07Z,51.066982,-114.113147,4.69,331.94,6.44,1169.69,149.2,56.592,0.684,56.592,0.23,0.5,0.23,0,83.85,19.88,2.87865
2017-04-06T16:56:08Z,51.066982,-114.112917,4.75,331.94,6.19,1169.19,155.13,57.852,1.8,57.888,0.35,0.31,0.36,0,32.14,19.88,2.89472
2017-04-06T16:56:09Z,51.066983,-114.11268,5.19,331.88,6.12,1169.88,149.56,59.544,-2.484,59.58,0.47,-1.19,0.47,0,-24.05,19.88,2.91126
2017-04-06T16:56:10Z,51.066983,-114.112438,5.31,331.81,5.94,1169.56,151.81,60.804,1.116,60.804,0.35,1,0.34,0,54.03,19.88,2.92815
2017-04-06T16:56:11Z,51.066985,-114.11219,5.25,331.81,5.5,1169.56,151.27,62.46,0,62.46,0.47,-0.31,0.46,0,0,19.88,2.9455
2017-04-06T16:56:13Z,51.066987,-114.111697,5.44,331.88,5.25,1169,131.09,124.092,2.016,124.128,17.12,0.56,17.12,0,61.28,19.94,2.97997
2017-04-06T16:56:14Z,51.066987,-114.111452,4.94,331.88,5.19,1168.25,137.62,61.632,2.7,61.704,-17.35,0.19,-17.34,0,22.83,19.94,2.99709
2017-04-06T16:56:15Z,51.066988,-114.111205,5.38,331.88,5.06,1168.81,159.53,62.064,-2.016,62.1,0.12,-1.31,0.11,0,-30.64,19.88,3.01433
2017-04-06T16:56:16Z,51.06699,-114.110963,5.56,331.94,4.94,1167.94,152.9,60.804,3.168,60.876,-0.35,1.44,-0.34,0,19.3,19.94,3.03122
2017-04-06T16:56:17Z,51.066992,-114.110718,5.19,331.94,5.44,1167.94,157.31,61.632,0,61.632,0.23,-0.88,0.21,0,0,19.94,3.04834
2017-04-06T16:56:18Z,51.066992,-114.110472,5.31,331.88,5.19,1167.88,142.51,62.064,0.216,62.064,0.12,0.06,0.12,0,275.76,19.88,3.06558
2017-04-06T16:56:19Z,51.066993,-114.11022,5.38,331.88,5,1167.38,128.94,63.324,1.8,63.324,0.35,0.44,0.36,0,35.17,19.94,3.08317
2017-04-06T16:56:20Z,51.066992,-114.109967,5.19,331.94,5.19,1167,131.32,63.72,1.368,63.756,0.12,-0.12,0.11,0,47.21,19.94,3.10087
2017-04-06T16:56:21Z,51.066992,-114.109713,5,331.94,5.19,1166.62,126.77,63.72,1.368,63.72,0,0,0,0,47.2,19.94,3.11857
2017-04-06T16:56:22Z,51.066992,-114.109463,5.56,331.94,4.69,1166.75,132.12,62.892,-0.432,62.892,-0.23,-0.5,-0.24,0,-139.74,19.94,3.13604
2017-04-06T16:56:23Z,51.066992,-114.109217,5.38,332,4.5,1166.25,135.67,62.064,1.8,62.064,-0.23,0.62,-0.23,0,34.47,19.94,3.15328
2017-04-06T16:56:24Z,51.066992,-114.108978,4.81,331.88,3.81,1166,136.99,59.94,0.9,59.94,-0.58,-0.25,-0.59,0,66.61,19.94,3.16993
2017-04-06T16:56:25Z,51.066992,-114.10875,5.12,332.12,4.12,1165.75,140.4,57.42,0.9,57.456,-0.7,0,-0.7,0,63.82,19.94,3.18588
2017-04-06T16:56:26Z,51.066992,-114.108523,5.19,332.12,4.38,1165.75,140.49,57.024,0,57.024,-0.12,-0.25,-0.12,0,0,19.94,3.20172
2017-04-06T16:56:27Z,51.06699,-114.108297,4.94,332.06,4.44,1165.62,146.6,57.024,0.432,57.024,0,0.12,0,0,126.71,19.94,3.21756
2017-04-06T16:56:28Z,51.06699,-114.108073,5.12,332,4.31,1164.88,143.64,56.196,2.7,56.232,-0.23,0.62,-0.22,0,20.81,19.94,3.23317
2017-04-06T16:56:29Z,51.06699,-114.107853,5.5,332.31,4.31,1165,127.17,55.332,-0.432,55.332,-0.23,-0.88,-0.25,0,-122.98,19.94,3.24854
2017-04-06T16:56:30Z,51.06699,-114.10763,5.56,332.38,4.56,1165,126.53,56.196,0,56.196,0.23,0.12,0.23,0,0,19.94,3.26415
2017-04-06T16:56:31Z,51.066988,-114.107405,5.38,332.44,4.38,1164.44,116.87,56.592,2.016,56.628,0.12,0.56,0.13,0,27.95,19.94,3.27987
2017-04-06T16:56:32Z,51.066985,-114.107175,5.38,332.88,4.12,1165.12,116.42,57.852,-2.484,57.924,0.35,-1.25,0.36,0,-23.38,19.94,3.29594
2017-04-06T16:56:33Z,51.06698,-114.106942,5.44,333,4.12,1164.56,102.35,58.716,2.016,58.752,0.24,1.25,0.23,0,29,19.94,3.31225
2017-04-06T16:56:34Z,51.066975,-114.106707,5.19,333.31,4.38,1164.94,-162.73,59.148,-1.368,59.148,0.12,-0.94,0.11,0,-43.81,19.94,3.32868
2017-04-06T16:56:35Z,51.066968,-114.10647,5.44,333.31,4.44,1165.25,148.67,59.58,-1.116,59.616,0.12,0.06,0.12,0,-52.97,19.94,3.34523
2017-04-06T16:56:36Z,51.06696,-114.106232,6.06,331.94,4.56,1165.06,-132.97,60.048,0.684,60.048,0.13,0.5,0.12,0,88.95,19.94,3.36191
2017-04-06T16:56:37Z,51.066955,-114.10599,5.31,331.75,4.38,1165.62,127.15,60.84,-2.016,60.84,0.22,-0.75,0.22,0,-30.04,19.94,3.37881
2017-04-06T16:56:38Z,51.066952,-114.105742,5.44,331.5,4.81,1166.25,142.43,62.496,-2.232,62.532,0.46,-0.06,0.46,0,-27.77,19.94,3.39617
2017-04-06T16:56:39Z,51.066948,-114.105477,5,331.38,4.69,1165.44,154.51,66.672,2.916,66.744,1.16,1.44,1.17,0,22.79,19.94,3.41469
2017-04-06T16:56:40Z,51.066948,-114.105198,5.06,331.25,4.62,1164.75,150.26,70.02,2.484,70.056,0.93,-0.12,0.92,0,28.29,19.94,3.43414
2017-04-06T16:56:41Z,51.066948,-114.104915,5.88,331.25,4.25,1164.25,118.49,71.28,1.8,71.28,0.35,-0.19,0.34,0,39.6,20,3.45394
2017-04-06T16:56:42Z,51.066947,-114.104633,5.81,331.31,4.25,1164.94,144.18,70.848,-2.484,70.884,-0.12,-1.19,-0.11,0,-28.63,20,3.47362
2017-04-06T16:56:43Z,51.066947,-114.104352,6.12,332.69,4.44,1165,129.14,70.848,-0.216,70.848,0,0.62,-0.01,0,-314.89,19.94,3.4933
2017-04-06T16:56:44Z,51.066943,-114.104068,5.38,334.31,4.31,1164.88,146.06,71.28,0.432,71.28,0.12,0.19,0.12,0,158.41,19.94,3.5131
2017-04-06T16:56:45Z,51.066935,-114.103783,5,333.81,4.56,1164.31,152.61,71.784,2.016,71.784,0.13,0.44,0.14,0,35.44,20,3.53304
2017-04-06T16:56:46Z,51.066923,-114.103503,5,332.56,4.62,1163.94,143.41,70.596,1.368,70.596,-0.33,-0.19,-0.33,0,52.29,20,3.55265
2017-04-06T16:56:47Z,51.066917,-114.103225,4.94,331.75,4.56,1163.62,147.99,70.056,1.116,70.056,-0.15,-0.06,-0.15,0,62.28,20,3.57211
2017-04-06T16:56:48Z,51.066913,-114.102952,4.62,331.69,3.06,1163.44,144.18,68.76,0.684,68.76,-0.36,-0.12,-0.36,0,101.88,20,3.59121
2017-04-06T16:56:49Z,51.066912,-114.10269,4.44,331.69,2.69,1163.19,151.79,65.808,0.9,65.844,-0.82,0.06,-0.82,0,73.14,20,3.60949
2017-04-06T16:56:50Z,51.06691,-114.102442,4.31,331.56,2.88,1163,147.88,62.46,0.684,62.46,-0.93,-0.06,-0.93,0,92.55,20,3.62684
2017-04-06T16:56:52Z,51.066908,-114.101963,3.94,331.5,3.06,1163.31,141.65,120.312,-1.116,120.312,16.07,-0.5,16.07,0,-106.95,20,3.66026
2017-04-06T16:56:53Z,51.066908,-114.101723,3.94,331.5,3.25,1163.44,136.12,60.372,-0.432,60.372,-16.65,0.19,-16.65,0,-134.16,20,3.67703
2017-04-06T16:56:54Z,51.066908,-114.10148,4.38,331.5,3.81,1163.31,137.79,61.2,0.432,61.2,0.23,0.25,0.23,0,136.02,20,3.69403
2017-04-06T16:56:55Z,51.06691,-114.101232,4.38,331.5,4.06,1161.75,141.34,62.46,5.616,62.712,0.35,1.44,0.42,0,11.11,20,3.71138
2017-04-06T16:56:56Z,51.066912,-114.10098,4.69,331.44,4.62,1163.62,153.63,63.324,-6.768,63.684,0.23,-3.44,0.26,0,-9.38,20,3.72897
2017-04-06T16:56:57Z,51.066912,-114.100722,5.06,331.44,4.81,1163.44,157.09,64.98,0.684,64.98,0.46,2.06,0.37,0,96.27,20,3.74702
2017-04-06T16:56:58Z,51.066912,-114.10046,5.44,331.5,4.62,1163.5,144.66,65.808,-0.216,65.808,0.23,-0.25,0.23,0,-292.53,20,3.7653
2017-04-06T16:56:59Z,51.066912,-114.100198,5.31,331.56,4.44,1163.25,146.06,65.808,0.9,65.808,0,0.31,0,0,73.13,20,3.78358
2017-04-06T16:57:00Z,51.066912,-114.09994,5.38,331.56,4.5,1162.75,144.88,64.98,1.8,65.016,-0.23,0.25,-0.23,0,36.1,20,3.80163
2017-04-06T16:57:01Z,51.066912,-114.099685,5.25,331.56,4.62,1162.81,151.81,64.152,-0.216,64.152,-0.23,-0.56,-0.24,0,-285.07,20,3.81945
2017-04-06T16:57:02Z,51.066912,-114.09943,5.19,331.56,4.44,1162.56,144.84,64.152,0.9,64.152,0,0.31,0,0,71.27,20.06,3.83727
2017-04-06T16:57:03Z,51.066912,-114.099183,5,331.5,2.38,1162.5,149.56,62.064,0.216,62.064,-0.58,-0.19,-0.58,0,275.76,20.06,3.85451
2017-04-06T16:57:04Z,51.066912,-114.098955,4.69,331.5,1.44,1161.88,158.2,57.42,2.232,57.492,-1.28,0.56,-1.27,0,25.53,20.06,3.87046
2017-04-06T16:57:05Z,51.06691,-114.098753,3.88,331.38,0,1161.62,146.06,50.724,0.9,50.724,-1.86,-0.38,-1.87,0,56.37,20.06,3.88455
2017-04-06T16:57:06Z,51.06691,-114.098588,3.81,331.31,-0.5,1161.44,135,41.508,0.684,41.508,-2.56,-0.06,-2.56,0,61.49,20.06,3.89608
2017-04-06T16:57:07Z,51.06691,-114.09846,3.44,331.12,-1.69,1160.56,146.58,32.292,3.168,32.436,-2.56,0.69,-2.52,0,10.25,20.06,3.90505
2017-04-06T16:57:08Z,51.066912,-114.09837,2.56,331,-5.94,1160.69,125.54,22.644,-0.432,22.644,-2.68,-1,-2.72,0,-50.33,20.06,3.91134
2017-04-06T16:57:09Z,51.066912,-114.098322,3.06,331,-4.94,1160.94,129.21,12.168,-0.9,12.168,-2.92,-0.12,-2.91,0,-13.5,20.06,3.91472
2017-04-06T16:57:10Z,51.066912,-114.098305,5.38,331.31,2.25,1161.19,130.1,4.176,-0.9,4.284,-2.22,0,-2.2,0,-4.64,20.06,3.91588
2017-04-06T16:57:11Z,51.066912,-114.098298,5.75,331.38,3.81,1161.69,119.74,1.62,-1.8,2.412,-0.71,-0.25,-0.52,0,-0.89,20.06,3.91633
2017-04-06T16:57:12Z,51.066912,-114.098298,6.12,331.44,4.88,1161.75,126.87,0,-0.216,0,0,0.44,0,0,0,20.06,3.91633
2017-04-06T16:57:13Z,51.066912,-114.098298,6.25,331.44,5.19,1162.06,113.37,0,-1.116,0,0,-0.25,0,0,0,20.06,3.91633
2017-04-06T16:57:14Z,51.066912,-114.098298,6.25,331.44,5.38,1161.56,131.69,0,1.8,0,0,0.81,0,0,0,20.06,3.91633
2017-04-06T16:57:15Z,51.066912,-114.098298,6.31,331.44,5.44,1161.5,123.31,0,0.216,0,0,-0.44,0,0,0,20.06,3.91633
2017-04-06T16:57:16Z,51.066912,-114.098298,6.25,331.44,5.44,1161.25,126.87,0,0.9,0,0,0.19,0,0,0,20.06,3.91633
2017-04-06T16:57:17Z,51.066912,-114.0983,6.25,331.44,5.5,1161.5,121.18,0,-0.9,0.9,0,-0.5,0,0,0,20.06,3.91633
2017-04-06T16:57:18Z,51.066912,-114.0983,6.31,331.44,5.62,1160.88,117.71,0,2.232,0,0,0.88,0,0,0,20.12,3.91633
2017-04-06T16:57:19Z,51.066912,-114.0983,6.38,331.44,5.75,1161.5,138.31,0,-2.232,0,0,-1.25,0,0,0,20.06,3.91633
2017-04-06T16:57:20Z,51.066912,-114.098298,6.38,331.44,5.75,1161.06,122.7,0,1.584,1.584,0,1.06,0,0,0,20.12,3.91633
2017-04-06T16:57:21Z,51.066912,-114.098298,6.38,331.44,5.75,1161.19,125.73,0,-0.432,0,0,-0.56,0,0,0,20.12,3.91633
2017-04-06T16:57:22Z,51.066912,-114.098298,6.38,331.44,5.75,1160.88,121.18,0,1.116,0,0,0.44,0,0,0,20.12,3.91633
2017-04-06T16:57:23Z,51.066912,-114.098298,6.38,331.44,5.75,1161.19,124.82,0,-1.116,0,0,-0.62,0,0,0,20.12,3.91633
2017-04-06T16:57:24Z,51.066912,-114.098298,6.38,331.44,5.81,1161,129.16,0,0.684,0,0,0.5,0,0,0,20.12,3.91633
2017-04-06T16:57:25Z,51.06691,-114.098298,6.44,331.44,5.88,1161.38,123.31,0.684,-1.368,1.512,0,-0.56,0,0,-0.51,20.12,3.91652
2017-04-06T16:57:26Z,51.06691,-114.098298,6.44,331.44,5.88,1161.44,122.93,0,-0.216,0.216,-0.19,0.31,-0.36,0,0,20.06,3.91652
2017-04-06T16:57:27Z,51.06691,-114.098298,6.38,331.44,5.88,1160.94,119.93,0,1.8,1.8,0,0.56,0.44,0,0,20.12,3.91652
2017-04-06T16:57:28Z,51.06691,-114.098298,6.38,331.44,5.88,1161.31,117.6,0,-1.368,1.368,0,-0.88,-0.12,0,0,20.12,3.91652
2017-04-06T16:57:29Z,51.066908,-114.098298,6.38,331.44,5.88,1160.75,130.1,0.684,2.016,2.124,0.19,0.94,0.22,0,0.34,20.12,3.91671
2017-04-06T16:57:30Z,51.066908,-114.098298,6.38,331.44,5.88,1161.19,121.18,0,-1.584,1.584,-0.19,-1,-0.16,0,0,20.12,3.91671
2017-04-06T16:57:31Z,51.066908,-114.098298,6.38,331.44,5.88,1161.5,122.93,0,-1.116,1.116,0,0.12,-0.12,0,0,20.12,3.91671
2017-04-06T16:57:32Z,51.066907,-114.098298,6.38,331.44,5.88,1161.19,112.33,0.684,1.116,1.332,0.19,0.62,0.05,0,0.61,20.12,3.9169
2017-04-06T16:57:33Z,51.066907,-114.098298,6.38,331.44,5.88,1161.38,125.13,0,-0.684,0.684,-0.19,-0.5,-0.18,0,0,20.12,3.9169
2017-04-06T16:57:34Z,51.066907,-114.098298,6.38,331.44,5.88,1161.31,128.9,0,0.216,0.216,0,0.25,-0.12,0,0,20.12,3.9169
2017-04-06T16:57:36Z,51.066907,-114.098298,6.38,331.44,5.81,1161.12,126.61,0,0.684,0.684,0,0.12,0.12,0,0,20.12,3.9169
2017-04-06T16:57:37Z,51.066907,-114.098298,6.38,331.44,5.81,1161.38,113.37,0,-0.9,0.9,0,-0.44,0.06,0,0,20.12,3.9169
2017-04-06T16:57:38Z,51.066907,-114.098297,6.44,331.44,5.81,1161.44,119.59,0.324,-0.216,0.396,0.09,0.19,-0.14,0,-1.52,20.12,3.91699
2017-04-06T16:57:39Z,51.066907,-114.098297,6.44,331.44,5.81,1161.25,119.74,0,0.684,0.684,-0.09,0.25,0.07,0,0,20.12,3.91699
2017-04-06T16:57:40Z,51.066907,-114.098297,6.44,331.44,5.81,1161.12,124.38,0,0.432,0.432,0,-0.06,-0.06,0,0,20.19,3.91699
2017-04-06T16:57:41Z,51.066907,-114.098297,6.44,331.44,5.81,1161.69,126.87,0,-2.016,2.016,0,-0.69,0.44,0,0,20.12,3.91699
2017-04-06T16:57:42Z,51.066908,-114.098297,6.44,331.44,5.81,1161.06,125.13,0.684,2.232,2.34,0.19,1.19,0.09,0,0.3,20.19,3.91718
2017-04-06T16:57:43Z,51.066908,-114.098297,6.44,331.44,5.81,1161.12,126.61,0,-0.216,0.216,-0.19,-0.69,-0.59,0,0,20.19,3.91718
2017-04-06T16:57:44Z,51.06691,-114.098297,6.44,331.44,5.88,1161.19,118.5,0.684,-0.216,0.72,0.19,0,0.14,0,-3.04,20.19,3.91737
2017-04-06T16:57:45Z,51.066912,-114.098295,6.44,331.44,5.88,1161.12,114.02,0.756,0.216,0.792,0.02,0.12,0.02,0,3.4,20.19,3.91758
2017-04-06T16:57:46Z,51.066912,-114.098295,6.44,331.44,5.94,1161.5,121.18,0,-1.368,0,0,-0.44,0,0,0,20.12,3.91758
2017-04-06T16:57:47Z,51.066912,-114.098295,6.44,331.44,5.88,1161.75,125.71,0,-0.9,0,0,0.12,0,0,0,20.12,3.91758
2017-04-06T16:57:48Z,51.066912,-114.098295,6.44,331.44,5.88,1161.31,128.9,0,1.584,0,0,0.69,0,0,0,20.19,3.91758
2017-04-06T16:57:49Z,51.066912,-114.098295,6.44,331.44,5.88,1161.25,132.37,0,0.216,0,0,-0.38,0,0,0,20.19,3.91758
2017-04-06T16:57:50Z,51.066912,-114.098295,6.44,331.44,5.88,1161.12,122.7,0,0.432,0,0,0.06,0,0,0,20.19,3.91758
